[
  {
    "wikidata_id": "Q87",
    "name": "亚历山大",
    "description": "埃及第二大城市、亞歷山大省省會",
    "longitude": 29.8925,
    "latitude": 31.1975,
    "cover_image_url": "http://commons.wikimedia.org/wiki/Special:FilePath/AlexandriaSkyline.jpg"
  },
  {
    "wikidata_id": "Q220",
    "name": "罗马",
    "description": "意大利首都及最大城市",
    "longitude": 12.482777777,
    "latitude": 41.893055555,
    "cover_image_url": "http://commons.wikimedia.org/wiki/Special:FilePath/Rome%20Skyline%20%288012016319%29.jpg"
  },
  {
    "wikidata_id": "Q641",
    "name": "威尼斯",
    "description": "意大利東北部城市",
    "longitude": 12.331944444,
    "latitude": 45.439722222,
    "cover_image_url": "http://commons.wikimedia.org/wiki/Special:FilePath/Floating%20city.tif"
  },
  {
    "wikidata_id": "Q1449",
    "name": "热那亚",
    "description": "意大利的一个市镇",
    "longitude": 8.933983333,
    "latitude": 44.407186111,
    "cover_image_url": "http://commons.wikimedia.org/wiki/Special:FilePath/Genova%20panorama%20centro%20storico%20da%20villetta%20Di%20Negro.jpg"
  },
  {
    "wikidata_id": "Q2449",
    "name": "摩加迪休",
    "description": "索馬里首都",
    "longitude": 45.341944444,
    "latitude": 2.039166666,
    "cover_image_url": "http://commons.wikimedia.org/wiki/Special:FilePath/Pictures%20from%20an%20armed%20convoy%20trip%20in%20Mogadishu.jpg"
  },
  {
    "wikidata_id": "Q3826",
    "name": "马斯喀特",
    "description": "阿曼苏丹国的首都",
    "longitude": 58.592222222,
    "latitude": 23.613888888,
    "cover_image_url": "http://commons.wikimedia.org/wiki/Special:FilePath/Old%20city%20of%20Maskat.jpg"
  },
  {
    "wikidata_id": "Q4629",
    "name": "苏拉特",
    "description": "印度古吉拉特邦城市",
    "longitude": 72.84,
    "latitude": 21.205,
    "cover_image_url": "http://commons.wikimedia.org/wiki/Special:FilePath/Surat%20at%20night.JPG"
  },
  {
    "wikidata_id": "Q8131",
    "name": "巨港",
    "description": "印尼苏门答腊岛城市",
    "longitude": 104.764444444,
    "latitude": -2.983333333,
    "cover_image_url": "http://commons.wikimedia.org/wiki/Special:FilePath/Montage%20of%20Palembang.jpg"
  },
  {
    "wikidata_id": "Q16572",
    "name": "广州市",
    "description": "广东省的省会",
    "longitude": 113.26,
    "latitude": 23.13,
    "cover_image_url": "http://commons.wikimedia.org/wiki/Special:FilePath/Canton%20Tower%2020220626%20%28cropped%29.jpg"
  },
  {
    "wikidata_id": "Q28729",
    "name": "科泽科德",
    "description": "印度克拉拉邦城市",
    "longitude": 75.780277777,
    "latitude": 11.247777777,
    "cover_image_url": "http://commons.wikimedia.org/wiki/Special:FilePath/Calicut-bus-stand.JPG"
  },
  {
    "wikidata_id": "Q35381",
    "name": "科伦坡",
    "description": "斯里蘭卡城市",
    "longitude": 79.860555555,
    "latitude": 6.926666666,
    "cover_image_url": "http://commons.wikimedia.org/wiki/Special:FilePath/Colombo%20skyline%202024.jpg"
  },
  {
    "wikidata_id": "Q42780",
    "name": "宁波市",
    "description": "浙江省的第二大城市，副省级市",
    "longitude": 121.549166666,
    "latitude": 29.875,
    "cover_image_url": "http://commons.wikimedia.org/wiki/Special:FilePath/Ningbo%20South%20Business%20District%2024-09-2018.jpg"
  },
  {
    "wikidata_id": "Q48195",
    "name": "巴士拉",
    "description": "伊拉克的一座城市",
    "longitude": 47.81,
    "latitude": 30.515,
    "cover_image_url": "http://commons.wikimedia.org/wiki/Special:FilePath/Basra-Shatt-Al-Arab.jpg"
  },
  {
    "wikidata_id": "Q61089",
    "name": "马六甲市",
    "description": "马来西亚马六甲州首府",
    "longitude": 102.251111111,
    "latitude": 2.188888888,
    "cover_image_url": "http://commons.wikimedia.org/wiki/Special:FilePath/2016%20Malakka%2C%20Plac%20Holenderski%20%2804%29.jpg"
  },
  {
    "wikidata_id": "Q68481",
    "name": "福州市",
    "description": "中华人民共和国福建省省会，地级市",
    "longitude": 119.291666666,
    "latitude": 26.076944444,
    "cover_image_url": "http://commons.wikimedia.org/wiki/Special:FilePath/Fuzhou%20Taixi%20CBD.jpg"
  },
  {
    "wikidata_id": "Q68695",
    "name": "泉州市",
    "description": "中国福建省的地级市",
    "longitude": 118.58583,
    "latitude": 24.91389,
    "cover_image_url": "http://commons.wikimedia.org/wiki/Special:FilePath/20230130%20Old%20City%20of%20Quanzhou%2001.jpg"
  },
  {
    "wikidata_id": "Q131694",
    "name": "亞丁",
    "description": "也门城市",
    "longitude": 45.033333333,
    "latitude": 12.8,
    "cover_image_url": "http://commons.wikimedia.org/wiki/Special:FilePath/Old%20Town%20Aden%20Yemen.jpg"
  },
  {
    "wikidata_id": "Q168056",
    "name": "錫拉夫港",
    "description": "伊朗港口城市",
    "longitude": 52.346111111,
    "latitude": 27.665833333,
    "cover_image_url": "http://commons.wikimedia.org/wiki/Special:FilePath/%D8%B3%D8%A7%D8%AD%D9%84%20%D8%A8%D9%86%D8%AF%D8%B1%20%D8%B3%DB%8C%D8%B1%D8%A7%D9%81.jpg"
  },
  {
    "wikidata_id": "Q321475",
    "name": "奎隆",
    "description": "印度城镇",
    "longitude": 76.586388888,
    "latitude": 8.885277777,
    "cover_image_url": "http://commons.wikimedia.org/wiki/Special:FilePath/Kollam%20Collage.png"
  },
  {
    "wikidata_id": "Q374365",
    "name": "吉达",
    "description": "沙特阿拉伯城市",
    "longitude": 39.172777777,
    "latitude": 21.542777777,
    "cover_image_url": "http://commons.wikimedia.org/wiki/Special:FilePath/Jeddah%20Waterfront%202025%20%28cropped%29.jpg"
  },
  {
    "wikidata_id": "Q888643",
    "name": "霍爾木茲",
    "description": "city in Hormozgan Province, Iran",
    "longitude": 56.452777777,
    "latitude": 27.095,
    "cover_image_url": "http://commons.wikimedia.org/wiki/Special:FilePath/City%20of%20Hormuz.jpg"
  }
]