[
  {
    "wikidata_id": "Q129072",
    "name": "波斯波利斯",
    "description": "ancient city in Marvdasht County, Iranian national heritage site and World heritage site",
    "longitude": 52.89,
    "latitude": 29.935,
    "cover_image_url": "http://commons.wikimedia.org/wiki/Special:FilePath/Gate%20of%20All%20Nations%2C%20Persepolis.jpg"
  },
  {
    "wikidata_id": "Q197823",
    "name": "中陈郝窑址",
    "description": "ceramic kiln in China",
    "longitude": 117.45963,
    "latitude": 34.88367,
    "cover_image_url": null
  },
  {
    "wikidata_id": "Q205131",
    "name": "乐山大佛",
    "description": "四川省佛像",
    "longitude": 103.76925,
    "latitude": 29.546944444,
    "cover_image_url": "http://commons.wikimedia.org/wiki/Special:FilePath/Leshan%20Giant%20Buddha%20%281%29.jpg"
  },
  {
    "wikidata_id": "Q206986",
    "name": "Ziwiye",
    "description": "treasure hoard from Saqqez County, Iran",
    "longitude": 46.68780833,
    "latitude": 36.26214722,
    "cover_image_url": "http://commons.wikimedia.org/wiki/Special:FilePath/Zwei%20Protome%2C%20Armreif%20und%20Silberschale%20mit%20Goldauflagen%20aus%20Ziwiye%20in%20Iran%2C%20c.a.%208.%20Jh.%20v.C.jpg"
  },
  {
    "wikidata_id": "Q4523",
    "name": "恰高·占比尔",
    "description": "elamite complex in the Khuzestan province of Iran",
    "longitude": 48.520833333,
    "latitude": 32.008333333,
    "cover_image_url": "http://commons.wikimedia.org/wiki/Special:FilePath/Choghazanbil2.jpg"
  },
  {
    "wikidata_id": "Q47672",
    "name": "秦始皇兵马俑",
    "description": "秦始皇陵卫戍性质的墓葬雕塑群",
    "longitude": 109.273055555,
    "latitude": 34.385,
    "cover_image_url": "http://commons.wikimedia.org/wiki/Special:FilePath/51714-Terracota-Army.jpg"
  },
  {
    "wikidata_id": "Q48472",
    "name": "庫尼亞烏爾根奇",
    "description": "土库曼斯坦城市",
    "longitude": 59.158611111,
    "latitude": 42.316666666,
    "cover_image_url": "http://commons.wikimedia.org/wiki/Special:FilePath/KonyeUrgenchMausoleum.jpg"
  },
  {
    "wikidata_id": "Q53311",
    "name": "罗家角遗址",
    "description": "archaeological site",
    "longitude": 120.46444444,
    "latitude": 30.63194444,
    "cover_image_url": null
  },
  {
    "wikidata_id": "Q31762",
    "name": "霍去病墓",
    "description": "tomb of a general in China",
    "longitude": 108.581388888,
    "latitude": 34.341388888,
    "cover_image_url": "http://commons.wikimedia.org/wiki/Special:FilePath/Maoling%2010.jpg"
  },
  {
    "wikidata_id": "Q41896",
    "name": "福泉山遗址",
    "description": "archeological site",
    "longitude": 121.177287367,
    "latitude": 31.200994574,
    "cover_image_url": "http://commons.wikimedia.org/wiki/Special:FilePath/Fuquanshan%20Site.jpg"
  },
  {
    "wikidata_id": "Q43286",
    "name": "莫高窟",
    "description": "中国甘肃敦煌的世界遗产佛像窟",
    "longitude": 94.804166666,
    "latitude": 40.037222222,
    "cover_image_url": "http://commons.wikimedia.org/wiki/Special:FilePath/Dunhuang%20Mogao%20Ku%202013.12.31%2012-30-18.jpg"
  },
  {
    "wikidata_id": "Q189538",
    "name": "甑皮岩遗址",
    "description": "中国的洞穴和考古遗址",
    "longitude": 110.277778055,
    "latitude": 25.215556111,
    "cover_image_url": "http://commons.wikimedia.org/wiki/Special:FilePath/Guilin%20Zengpiyan%20Yizhi%202012.09.29%2011-31-22.jpg"
  },
  {
    "wikidata_id": "Q180773",
    "name": "蘇薩",
    "description": "ancient city in Iran, World Heritage site in Iran",
    "longitude": 48.256111111,
    "latitude": 32.189444444,
    "cover_image_url": "http://commons.wikimedia.org/wiki/Special:FilePath/The%20Apadana%2C%20a%20large%20hypostyle%20room%20of%2036%20columns%20in%20the%20Palace%20of%20Darius%2C%20Susa%2C%20capital%20of%20Elam%20and%20of%20the%20Achaemenid%20Empire%2C%20Iran%20%2846950284624%29.jpg"
  },
  {
    "wikidata_id": "Q188354",
    "name": "泥河湾遗址",
    "description": "sedimentary basin in Northern China",
    "longitude": 114.66395,
    "latitude": 40.216002,
    "cover_image_url": "http://commons.wikimedia.org/wiki/Special:FilePath/%E6%B3%A5%E6%B2%B3%E6%B9%BE%20-%20panoramio.jpg"
  },
  {
    "wikidata_id": "Q197895",
    "name": "钟山石窟",
    "description": "cave in People's Republic of China",
    "longitude": 109.527919,
    "latitude": 37.173363,
    "cover_image_url": null
  },
  {
    "wikidata_id": "Q198067",
    "name": "周原遗址",
    "description": "archaeological site",
    "longitude": 107.84141,
    "latitude": 34.49002,
    "cover_image_url": null
  },
  {
    "wikidata_id": "Q203132",
    "name": "郑州商城遗址",
    "description": "河南省郑州市的商代城市考古遺址",
    "longitude": 113.68305556,
    "latitude": 34.74527778,
    "cover_image_url": "http://commons.wikimedia.org/wiki/Special:FilePath/%E9%83%91%E5%B7%9E%E5%95%86%E5%9F%8E%E9%81%97%E5%9D%801.JPG"
  },
  {
    "wikidata_id": "Q115253",
    "name": "塔赫特苏莱曼",
    "description": "archaeological site in West Azarbaijan, Iranian national heritage site",
    "longitude": 47.234166666,
    "latitude": 36.604722222,
    "cover_image_url": "http://commons.wikimedia.org/wiki/Special:FilePath/Takhte%20Soleyman%20%285%29.jpg"
  },
  {
    "wikidata_id": "Q179220",
    "name": "小河墓地",
    "description": "cemetery in Ruoqiang County, China",
    "longitude": 88.6725,
    "latitude": 40.3364,
    "cover_image_url": "http://commons.wikimedia.org/wiki/Special:FilePath/Map%20of%20the%20Lop%20Nor%20region%20by%20Folke%20Bergman%201935.jpg"
  },
  {
    "wikidata_id": "Q193325",
    "name": "梅尔夫",
    "description": "中亚城市",
    "longitude": 62.1925,
    "latitude": 37.662777777,
    "cover_image_url": "http://commons.wikimedia.org/wiki/Special:FilePath/Merv%20City%20Walls%20%2810%29%20%2844747325714%29.jpg"
  },
  {
    "wikidata_id": "Q197129",
    "name": "寨里窑址",
    "description": "ceramic kiln in the area of the villages Zhaili",
    "longitude": 118.0318,
    "latitude": 36.6382,
    "cover_image_url": null
  },
  {
    "wikidata_id": "Q197490",
    "name": "爪村遗址",
    "description": "archaeological site",
    "longitude": 118.71399,
    "latitude": 39.94224,
    "cover_image_url": null
  },
  {
    "wikidata_id": "Q197502",
    "name": "唐昭陵",
    "description": "mausoleum of Emperor Taizong of Tang",
    "longitude": 108.48335,
    "latitude": 34.63168,
    "cover_image_url": "http://commons.wikimedia.org/wiki/Special:FilePath/Zhao%20Mausoleum.JPG"
  },
  {
    "wikidata_id": "Q197784",
    "name": "织机洞遗址",
    "description": "位于河南省荥阳市的旧石器时代考古遗址",
    "longitude": 113.323985,
    "latitude": 34.645322,
    "cover_image_url": "http://commons.wikimedia.org/wiki/Special:FilePath/20230301%20Site%20of%20Zhijidong%2001.jpg"
  },
  {
    "wikidata_id": "Q197793",
    "name": "Zhirendong",
    "description": "archaeological site",
    "longitude": 107.51252778,
    "latitude": 22.28711111,
    "cover_image_url": null
  },
  {
    "wikidata_id": "Q217618",
    "name": "金沙遺址",
    "description": "位於成都的青銅器時代遺址",
    "longitude": 104.010911,
    "latitude": 30.683436,
    "cover_image_url": "http://commons.wikimedia.org/wiki/Special:FilePath/%E9%87%91%E6%B2%99%E9%81%97%E5%9D%80%20Jinsha%20Site%202018.jpg"
  },
  {
    "wikidata_id": "Q217684",
    "name": "盘龙城遗址",
    "description": "发现于中国湖北省武汉市的商代城垣聚落考古遗址",
    "longitude": 114.265555555,
    "latitude": 30.694444444,
    "cover_image_url": "http://commons.wikimedia.org/wiki/Special:FilePath/Lijiazui%20Site%20at%20Panlong%20City%20National%20Archaeological%20Park.jpg"
  },
  {
    "wikidata_id": "Q217859",
    "name": "陶寺遺址",
    "description": "中国考古遗址",
    "longitude": 111.490055555,
    "latitude": 35.892861111,
    "cover_image_url": "http://commons.wikimedia.org/wiki/Special:FilePath/Shanxi%20Museum%20-%20a%20painted%20pottery%20jar.JPG"
  },
  {
    "wikidata_id": "Q227049",
    "name": "走马楼简牍",
    "description": "archaeological site",
    "longitude": 112.9716105,
    "latitude": 28.198445888,
    "cover_image_url": null
  },
  {
    "wikidata_id": "Q230025",
    "name": "帕薩爾加德",
    "description": "ancient city and archaeological site in Fars Province, Iranian national heritage site",
    "longitude": 53.179444444,
    "latitude": 30.2,
    "cover_image_url": "http://commons.wikimedia.org/wiki/Special:FilePath/Pasargadae%2C%20Marv%20Dasht%2C%20near%20Shiraz%20-%204-8-2013.jpg"
  },
  {
    "wikidata_id": "Q232014",
    "name": "南汉二陵博物馆",
    "description": "位于中国广东省广州市的皇陵遗址博物馆",
    "longitude": 113.37789,
    "latitude": 23.05073,
    "cover_image_url": "http://commons.wikimedia.org/wiki/Special:FilePath/Southern%20Han%20Mausoleums%20Museum%2020220604-A.jpg"
  },
  {
    "wikidata_id": "Q134873",
    "name": "高句丽王城、王陵及贵族墓葬",
    "description": "UNESCO World Heritage Site in China",
    "longitude": 126.18722222,
    "latitude": 41.15694444,
    "cover_image_url": "http://commons.wikimedia.org/wiki/Special:FilePath/Tomb%20of%20the%20General%201.jpg"
  },
  {
    "wikidata_id": "Q140339",
    "name": "扎滚鲁克古墓群",
    "description": "archaeological site",
    "longitude": 85.47987,
    "latitude": 38.12181,
    "cover_image_url": "http://commons.wikimedia.org/wiki/Special:FilePath/Zhagunluke%20Tombs.jpg"
  },
  {
    "wikidata_id": "Q232074",
    "name": "南唐二陵",
    "description": "building in Nanjing, China",
    "longitude": 118.73361111,
    "latitude": 31.89055556,
    "cover_image_url": "http://commons.wikimedia.org/wiki/Special:FilePath/Nantang06.jpg"
  },
  {
    "wikidata_id": "Q426225",
    "name": "岡那梅",
    "description": "inscription in Hamadan County, Iranian national heritage site",
    "longitude": 48.437194444,
    "latitude": 34.762361111,
    "cover_image_url": "http://commons.wikimedia.org/wiki/Special:FilePath/Cuneiform%20Inscriptions%20of%20Darius%20and%20Xerxes%20-%20Ganjnameh%20-%20Outside%20Hamadan%20-%20Western%20Iran%20-%2001%20%287423532748%29.jpg"
  },
  {
    "wikidata_id": "Q250844",
    "name": "提埤 哈珊魯",
    "description": "archaeological site in Iran",
    "longitude": 45.458892,
    "latitude": 37.004831,
    "cover_image_url": "http://commons.wikimedia.org/wiki/Special:FilePath/Iran%20bastan%20-%2025.jpg"
  },
  {
    "wikidata_id": "Q254842",
    "name": "关陵",
    "description": "cemetery in Dangyang, China",
    "longitude": 111.76583333,
    "latitude": 30.84333333,
    "cover_image_url": null
  },
  {
    "wikidata_id": "Q259336",
    "name": "炳靈寺石窟",
    "description": "甘肃省临夏回族自治州永靖县王台镇的石窟",
    "longitude": 103.044378,
    "latitude": 35.80551,
    "cover_image_url": "http://commons.wikimedia.org/wiki/Special:FilePath/Bingling%20Temple%2002.jpg"
  },
  {
    "wikidata_id": "Q477898",
    "name": "比沙普尔",
    "description": "ancient city in Kazerun County, Iranian national heritage site",
    "longitude": 51.570833,
    "latitude": 29.777778,
    "cover_image_url": "http://commons.wikimedia.org/wiki/Special:FilePath/Anahita%20Temple%20of%20Bishapur%20%28Kazerun%29%201.jpg"
  },
  {
    "wikidata_id": "Q400087",
    "name": "大洋洲程家遗址",
    "description": "archaeological site",
    "longitude": 115.4515,
    "latitude": 27.9193,
    "cover_image_url": "http://commons.wikimedia.org/wiki/Special:FilePath/Jiangxi%20Sheng%20Bowuguan%2020120627-64.jpg"
  },
  {
    "wikidata_id": "Q413452",
    "name": "碎葉城",
    "description": "古代西域城市",
    "longitude": 75.2667,
    "latitude": 42.8,
    "cover_image_url": "http://commons.wikimedia.org/wiki/Special:FilePath/BezeklikSogdianMerchants.jpg"
  },
  {
    "wikidata_id": "Q420194",
    "name": "Jeitun",
    "description": "archaeological site of the Neolithic period in Turkmenistan",
    "longitude": 58.34913633,
    "latitude": 38.18784839,
    "cover_image_url": "http://commons.wikimedia.org/wiki/Special:FilePath/Jeytun%20oblique.jpg"
  },
  {
    "wikidata_id": "Q422929",
    "name": "萨拉子目",
    "description": "archaeological site",
    "longitude": 67.566666666,
    "latitude": 39.516666666,
    "cover_image_url": "http://commons.wikimedia.org/wiki/Special:FilePath/Sarazm%2Carea12-W.jpg"
  },
  {
    "wikidata_id": "Q464904",
    "name": "殷墟",
    "description": "位于河南安阳的商朝故都",
    "longitude": 114.318611111,
    "latitude": 36.1225,
    "cover_image_url": "http://commons.wikimedia.org/wiki/Special:FilePath/26120-Anyang%20%2849086436522%29.jpg"
  },
  {
    "wikidata_id": "Q569107",
    "name": "安善",
    "description": "ancient city of Elam",
    "longitude": 52.407777777,
    "latitude": 30.011666666,
    "cover_image_url": "http://commons.wikimedia.org/wiki/Special:FilePath/Keramik%20aus%20Iran.jpg"
  },
  {
    "wikidata_id": "Q384077",
    "name": "葉海亞台形遺址",
    "description": "archaeological site",
    "longitude": 56.8674,
    "latitude": 28.3309,
    "cover_image_url": "http://commons.wikimedia.org/wiki/Special:FilePath/Placa%20de%20piedra%20con%20%C3%A1guila%20grabada%20-%20MARQ.jpg"
  },
  {
    "wikidata_id": "Q387342",
    "name": "Melikawat",
    "description": "archeological site",
    "longitude": 79.903333333,
    "latitude": 36.961944444,
    "cover_image_url": "http://commons.wikimedia.org/wiki/Special:FilePath/Khotan-melikawat-ruinas-d05.jpg"
  },
  {
    "wikidata_id": "Q471765",
    "name": "元上都",
    "description": "元朝陪都,皇帝避暑之地, 爲元世祖忽必烈所建",
    "longitude": 116.185158888,
    "latitude": 42.358021111,
    "cover_image_url": "http://commons.wikimedia.org/wiki/Special:FilePath/Xanadu%20%2854565367991%29.jpg"
  },
  {
    "wikidata_id": "Q648705",
    "name": "納克什 魯斯塔姆",
    "description": "necropolis in Fars Province, Iranian national heritage site",
    "longitude": 52.874722222,
    "latitude": 29.988888888,
    "cover_image_url": "http://commons.wikimedia.org/wiki/Special:FilePath/The%20Islamic%20Republic%20049%20%288498647398%29.jpg"
  },
  {
    "wikidata_id": "Q651278",
    "name": "大足石刻",
    "description": "archaeological site",
    "longitude": 105.706944444,
    "latitude": 29.713333333,
    "cover_image_url": "http://commons.wikimedia.org/wiki/Special:FilePath/%E5%A4%A7%E8%B6%B3%E7%9F%B3%E5%88%BB.JPG"
  },
  {
    "wikidata_id": "Q798609",
    "name": "扒村窑址",
    "description": "archaeological site",
    "longitude": 113.45128,
    "latitude": 34.27477,
    "cover_image_url": null
  },
  {
    "wikidata_id": "Q803759",
    "name": "白金宝文化",
    "description": "archaeological site",
    "longitude": 124.456509,
    "latitude": 45.489321,
    "cover_image_url": "http://commons.wikimedia.org/wiki/Special:FilePath/%E6%88%BF%E5%9D%80F3017%E5%A4%8D%E5%8E%9F%E6%A8%A1%E5%9E%8B2017%E5%A4%8F.jpg"
  },
  {
    "wikidata_id": "Q803830",
    "name": "白莲洞遗址",
    "description": "archaeological site in China",
    "longitude": 109.42777778,
    "latitude": 24.21361111,
    "cover_image_url": "http://commons.wikimedia.org/wiki/Special:FilePath/Liuzhou%20Bailiandong%20Yizhi%202014.03.01%2014-58-22.jpg"
  },
  {
    "wikidata_id": "Q488775",
    "name": "Anban",
    "description": "archaeological site in Fufeng, Shaanxi, China",
    "longitude": 100.8894735,
    "latitude": 23.862093,
    "cover_image_url": null
  },
  {
    "wikidata_id": "Q530104",
    "name": "昂昂溪遗址",
    "description": "archaeological site",
    "longitude": 123.82584,
    "latitude": 47.142687,
    "cover_image_url": "http://commons.wikimedia.org/wiki/Special:FilePath/Ang%27angxi%20Tengjiagang%20Site%20steles.jpg"
  },
  {
    "wikidata_id": "Q574870",
    "name": "Rahmatabad Mound",
    "description": "archaeological site",
    "longitude": 53.17901,
    "latitude": 30.2033075,
    "cover_image_url": null
  },
  {
    "wikidata_id": "Q576097",
    "name": "铜绿山古铜矿遗址",
    "description": "archaeological site",
    "longitude": 114.938396,
    "latitude": 30.083998,
    "cover_image_url": "http://commons.wikimedia.org/wiki/Special:FilePath/Partial%20Restoration%20of%20Spring%20and%20Autumn%20Period%20mining%20sites%20in%20Tongl%C3%BC%20Mountain.jpg"
  },
  {
    "wikidata_id": "Q576100",
    "name": "照壁山铜矿遗址",
    "description": "archaeological site",
    "longitude": 105.36535,
    "latitude": 37.69872,
    "cover_image_url": null
  },
  {
    "wikidata_id": "Q605408",
    "name": "Bastam Citadel",
    "description": "village and archaeological site in Iran",
    "longitude": 44.950943,
    "latitude": 38.884575,
    "cover_image_url": "http://commons.wikimedia.org/wiki/Special:FilePath/Bastam06.jpg"
  },
  {
    "wikidata_id": "Q804034",
    "name": "白羊村遗址",
    "description": "archaeological site",
    "longitude": 100.58514,
    "latitude": 25.84782,
    "cover_image_url": "http://commons.wikimedia.org/wiki/Special:FilePath/Baiyangcun%20Site%20in%20Binchuan%2C%20Yunnan%2C%20China.jpg"
  },
  {
    "wikidata_id": "Q804954",
    "name": "八连城遗址",
    "description": "archaeological site",
    "longitude": 130.283044,
    "latitude": 42.858046,
    "cover_image_url": null
  },
  {
    "wikidata_id": "Q809967",
    "name": "八十垱遗址",
    "description": "archaeological site",
    "longitude": 111.84689,
    "latitude": 29.75742,
    "cover_image_url": "http://commons.wikimedia.org/wiki/Special:FilePath/Bone%20spade.%20Bashidang%20site.%20Hunan%20Museum.jpg"
  },
  {
    "wikidata_id": "Q491836",
    "name": "安迪尔古城遗址",
    "description": "archaeological site",
    "longitude": 83.819878,
    "latitude": 37.792756,
    "cover_image_url": "http://commons.wikimedia.org/wiki/Special:FilePath/Endere%20BLP470%20PHOTO1125%2016%20306.jpg"
  },
  {
    "wikidata_id": "Q498118",
    "name": "沙赫達德",
    "description": "city in Kerman Province, Iran",
    "longitude": 57.706666666,
    "latitude": 30.4175,
    "cover_image_url": "http://commons.wikimedia.org/wiki/Special:FilePath/%D8%A7%D8%B3%DB%8C%D8%A7%D8%A8%20%D8%A7%D8%A8%DB%8C%201.jpg"
  },
  {
    "wikidata_id": "Q764959",
    "name": "馬立科",
    "description": "archaeological site in Iran",
    "longitude": 49.45916667,
    "latitude": 36.83055556,
    "cover_image_url": null
  },
  {
    "wikidata_id": "Q774339",
    "name": "戈丁台形遺址",
    "description": "human settlement",
    "longitude": 48.066667,
    "latitude": 34.516667,
    "cover_image_url": null
  },
  {
    "wikidata_id": "Q792827",
    "name": "阿亞茲·卡拉",
    "description": "archaeological site in Uzbekistan",
    "longitude": 61.02722222,
    "latitude": 42.00972222,
    "cover_image_url": "http://commons.wikimedia.org/wiki/Special:FilePath/Ayaz-Kala-2.jpg"
  },
  {
    "wikidata_id": "Q793516",
    "name": "东下冯遗址",
    "description": "archaeological site",
    "longitude": 111.309827,
    "latitude": 35.255041,
    "cover_image_url": null
  },
  {
    "wikidata_id": "Q806929",
    "name": "半坡遗址",
    "description": "仰韶文化遗址",
    "longitude": 109.0475,
    "latitude": 34.27444444,
    "cover_image_url": "http://commons.wikimedia.org/wiki/Special:FilePath/Banpo.jpg"
  },
  {
    "wikidata_id": "Q932671",
    "name": "磁州窑",
    "description": "宋元时期中国北方代表性民间窑场，窑址位于河北省磁县",
    "longitude": 114.1606,
    "latitude": 36.4115,
    "cover_image_url": "http://commons.wikimedia.org/wiki/Special:FilePath/Bottle%2C%20Cizhou-type%20ware%2C%20Shanxi%20or%20Hebei%20province%2C%20China%2C%20Jin%20dynasty%2C%2012th-mid%2013th%20century%20AD%2C%20stoneware%20with%20white%20slip%20and%20blaze%20glaze%20-%20Freer%20Gallery%20of%20Art%20-%20DSC05568.JPG"
  },
  {
    "wikidata_id": "Q950653",
    "name": "唐乾陵",
    "description": "mausoleum of Emperor Gaozong and Wu Zetian",
    "longitude": 108.214733055,
    "latitude": 34.569176111,
    "cover_image_url": "http://commons.wikimedia.org/wiki/Special:FilePath/Naitou-topparna.JPG"
  },
  {
    "wikidata_id": "Q956911",
    "name": "訛答剌",
    "description": "Archaeological site in South Kazakhstan",
    "longitude": 68.3029696,
    "latitude": 42.8514829,
    "cover_image_url": "http://commons.wikimedia.org/wiki/Special:FilePath/Ovidio%20Guaita%2016.jpg"
  },
  {
    "wikidata_id": "Q620724",
    "name": "Lop Desert",
    "description": "desert in China",
    "longitude": 90.583333333,
    "latitude": 40.166666666,
    "cover_image_url": "http://commons.wikimedia.org/wiki/Special:FilePath/Desert%20Lop%20Nur%2089.00E%2C%2040.30N%20between%20Kuruktagh%20and%20Astintagh.jpg"
  },
  {
    "wikidata_id": "Q814874",
    "name": "北石窟寺",
    "description": "cave temple in Qingyang City, Gansu, China",
    "longitude": 107.5322,
    "latitude": 35.611,
    "cover_image_url": null
  },
  {
    "wikidata_id": "Q814875",
    "name": "北首岭遗址",
    "description": "archaeological site",
    "longitude": 107.1541,
    "latitude": 34.3857,
    "cover_image_url": "http://commons.wikimedia.org/wiki/Special:FilePath/Bei%20Shouling%20Historic%20Site%2005%202012-09.JPG"
  },
  {
    "wikidata_id": "Q814907",
    "name": "庭州",
    "description": "archaeological site in Xinjiang, China",
    "longitude": 89.204083333,
    "latitude": 44.096333333,
    "cover_image_url": "http://commons.wikimedia.org/wiki/Special:FilePath/Landscape%20in%20the%20inner%20city.jpg"
  },
  {
    "wikidata_id": "Q834417",
    "name": "城头山遗址",
    "description": "archaeological site",
    "longitude": 111.65555556,
    "latitude": 29.69166667,
    "cover_image_url": "http://commons.wikimedia.org/wiki/Special:FilePath/Entrance%20of%20the%20chengtoushan%20ruins.jpg"
  },
  {
    "wikidata_id": "Q843955",
    "name": "李鄭屋漢墓博物館",
    "description": "香港法定古蹟",
    "longitude": 114.160022222,
    "latitude": 22.338094444,
    "cover_image_url": "http://commons.wikimedia.org/wiki/Special:FilePath/Image-HK%20LeiChengUkHanTombMuseum%20Outside.jpg"
  },
  {
    "wikidata_id": "Q854672",
    "name": "尼薩",
    "description": "capital of Parthian Empire",
    "longitude": 58.212408333,
    "latitude": 37.951147222,
    "cover_image_url": "http://commons.wikimedia.org/wiki/Special:FilePath/Nisa.jpg"
  },
  {
    "wikidata_id": "Q890674",
    "name": "百谷和高岭坡遗址",
    "description": "archaeological site",
    "longitude": 107.198383,
    "latitude": 23.568184,
    "cover_image_url": null
  },
  {
    "wikidata_id": "Q915738",
    "name": "玉蟾岩遗址",
    "description": "archaeological site",
    "longitude": 111.47607,
    "latitude": 25.581606,
    "cover_image_url": null
  },
  {
    "wikidata_id": "Q924670",
    "name": "丁公遗址",
    "description": "archaeological site",
    "longitude": 117.84554,
    "latitude": 36.94412,
    "cover_image_url": null
  },
  {
    "wikidata_id": "Q929072",
    "name": "三星堆遺址",
    "description": "中国新石器时代末期至商代的大型遗址，位于四川广汉市南兴镇和三星镇之间",
    "longitude": 104.199826,
    "latitude": 30.993719,
    "cover_image_url": "http://commons.wikimedia.org/wiki/Special:FilePath/%E4%B8%89%E6%98%9F%E5%A0%86%E5%87%BA%E5%9C%9F%E9%9D%92%E9%93%9C%E5%A4%A7%E7%AB%8B%E4%BA%BA%E5%83%8F%2C%202017-09-17.jpg"
  },
  {
    "wikidata_id": "Q696193",
    "name": "埃克巴坦那",
    "description": "ancient city that was the capital of the Median empire",
    "longitude": 48.516247,
    "latitude": 34.8065,
    "cover_image_url": "http://commons.wikimedia.org/wiki/Special:FilePath/Excavations%20in%20Ecbatana.jpg"
  },
  {
    "wikidata_id": "Q709753",
    "name": "渤海国上京龙泉府遗址",
    "description": "archaeological site",
    "longitude": 129.14166667,
    "latitude": 44.13055556,
    "cover_image_url": "http://commons.wikimedia.org/wiki/Special:FilePath/%E6%B8%A4%E6%B5%B7%E4%B8%AD%E4%BA%AC%E5%9F%8E%E9%81%BA%E5%85%A8%E6%99%AF.jpg"
  },
  {
    "wikidata_id": "Q711386",
    "name": "國內城",
    "description": "The second capital of Goguryeo kingdom, Three kingdoms of Korea",
    "longitude": 126.17861111,
    "latitude": 41.12083333,
    "cover_image_url": "http://commons.wikimedia.org/wiki/Special:FilePath/Koguryo%20Remains%20Park%201.jpg"
  },
  {
    "wikidata_id": "Q862251",
    "name": "伊什塔克爾",
    "description": "An ancient city in Fars Province, Iran, a monument registered in the National Monuments List of Iran",
    "longitude": 52.909444444,
    "latitude": 29.981666666,
    "cover_image_url": "http://commons.wikimedia.org/wiki/Special:FilePath/Persepolis%2C%20Iran.jpg"
  },
  {
    "wikidata_id": "Q865988",
    "name": "临淄齐国故城",
    "description": "archaeological site in China",
    "longitude": 118.337908,
    "latitude": 36.889756,
    "cover_image_url": "http://commons.wikimedia.org/wiki/Special:FilePath/Linzi%20model%202010%2006%2006.jpg"
  },
  {
    "wikidata_id": "Q877381",
    "name": "高昌",
    "description": "位于今新疆吐鲁番的西域古国",
    "longitude": 89.529166666,
    "latitude": 42.852777777,
    "cover_image_url": "http://commons.wikimedia.org/wiki/Special:FilePath/Turpan-gaochang-d10.jpg"
  },
  {
    "wikidata_id": "Q751622",
    "name": "榆林窟",
    "description": "中国甘肃省瓜州县的榆林窟",
    "longitude": 95.936136,
    "latitude": 40.059154,
    "cover_image_url": "http://commons.wikimedia.org/wiki/Special:FilePath/%E6%A6%86%E6%9E%97%E7%AA%9F.jpg"
  },
  {
    "wikidata_id": "Q910180",
    "name": "秦始皇陵",
    "description": "秦朝始皇帝陵墓",
    "longitude": 109.25388889,
    "latitude": 34.38166667,
    "cover_image_url": "http://commons.wikimedia.org/wiki/Special:FilePath/%E7%A7%A6%E5%A7%8B%E7%9A%87%E5%B8%9D%E9%99%B5%C2%B7%E7%A7%A6%E5%A7%8B%E7%9A%87%E9%99%B5%C2%B7%E8%A5%BF%E5%AE%89%E8%87%A8%E6%BD%BC%C2%B7%EF%BC%88%E5%B0%81%E5%9C%9F%E6%AD%A3%E5%8C%97%E5%81%B4%EF%BC%89.jpg"
  },
  {
    "wikidata_id": "Q980302",
    "name": "Tanbaly-Tas",
    "description": "17th Century rock etchings in Tibet",
    "longitude": 76.99694444,
    "latitude": 44.05916667,
    "cover_image_url": "http://commons.wikimedia.org/wiki/Special:FilePath/Tamgaly-Tas.JPG"
  },
  {
    "wikidata_id": "Q980774",
    "name": "柏孜克里克千佛洞",
    "description": "新疆的千佛洞",
    "longitude": 89.539726,
    "latitude": 42.955427,
    "cover_image_url": "http://commons.wikimedia.org/wiki/Special:FilePath/Turpan-bezeklik-cuevas-d01.jpg"
  },
  {
    "wikidata_id": "Q991847",
    "name": "周公庙遗址",
    "description": "cemetery in China",
    "longitude": 107.600261,
    "latitude": 34.488157,
    "cover_image_url": null
  },
  {
    "wikidata_id": "Q746537",
    "name": "阿斯塔那古墓群",
    "description": "位于新疆晋至唐时代的墓葬群",
    "longitude": 89.52711389,
    "latitude": 42.88155,
    "cover_image_url": "http://commons.wikimedia.org/wiki/Special:FilePath/Astana-view.jpg"
  },
  {
    "wikidata_id": "Q750102",
    "name": "库木吐喇千佛洞",
    "description": "cave in People's Republic of China",
    "longitude": 82.6784,
    "latitude": 41.7117,
    "cover_image_url": "http://commons.wikimedia.org/wiki/Special:FilePath/Kuntula%20Grottoes%201%2C%20Kuqa.jpg"
  },
  {
    "wikidata_id": "Q750107",
    "name": "藏王墓",
    "description": "cemetery in Qonggyai County, Shannan, Tibet, China",
    "longitude": 91.679769,
    "latitude": 29.017821,
    "cover_image_url": "http://commons.wikimedia.org/wiki/Special:FilePath/Valley%20of%20Tibetan%20kings.jpg"
  },
  {
    "wikidata_id": "Q897898",
    "name": "统万城",
    "description": "ruined city in China",
    "longitude": 108.84722,
    "latitude": 37.998758,
    "cover_image_url": "http://commons.wikimedia.org/wiki/Special:FilePath/%E7%BB%9F%E4%B8%87%E5%9F%8E.JPG"
  },
  {
    "wikidata_id": "Q940045",
    "name": "塔奇·博斯坦岩石浮雕",
    "description": "Iranian national heritage site",
    "longitude": 47.132096,
    "latitude": 34.387529,
    "cover_image_url": "http://commons.wikimedia.org/wiki/Special:FilePath/%D8%AA%D8%A7%D9%82%E2%80%8C%D8%A8%D8%B3%D8%AA%D8%A7%D9%86.jpg"
  },
  {
    "wikidata_id": "Q943327",
    "name": "塔姆格里",
    "description": "archaeological site in Kazakhstan",
    "longitude": 75.535,
    "latitude": 43.803333333,
    "cover_image_url": "http://commons.wikimedia.org/wiki/Special:FilePath/Tanbaly.jpg"
  },
  {
    "wikidata_id": "Q962083",
    "name": "人字洞遗址",
    "description": "archaeological site",
    "longitude": 118.0944,
    "latitude": 31.0637,
    "cover_image_url": null
  },
  {
    "wikidata_id": "Q971221",
    "name": "南胜窑址",
    "description": "archaeological site",
    "longitude": 117.34603,
    "latitude": 24.21013,
    "cover_image_url": null
  },
  {
    "wikidata_id": "Q1000944",
    "name": "白杨沟佛寺遗址",
    "description": "building in Yizhou District, China",
    "longitude": 92.98166,
    "latitude": 43.01544,
    "cover_image_url": null
  },
  {
    "wikidata_id": "Q1012794",
    "name": "骊靬村",
    "description": "中国之村",
    "longitude": 101.8698,
    "latitude": 38.1952,
    "cover_image_url": null
  },
  {
    "wikidata_id": "Q1073538",
    "name": "阿房宮",
    "description": "秦朝的宮殿",
    "longitude": 108.8089,
    "latitude": 34.26327,
    "cover_image_url": "http://commons.wikimedia.org/wiki/Special:FilePath/%E9%98%BF%E6%88%BF%E5%AE%AB%E9%81%97%E5%9D%80%E5%A4%A7%E9%97%A8.jpg"
  },
  {
    "wikidata_id": "Q1077215",
    "name": "安娜希塔神廟",
    "description": "temple attributed to Anahita",
    "longitude": 47.9599,
    "latitude": 34.5015,
    "cover_image_url": "http://commons.wikimedia.org/wiki/Special:FilePath/Anahita%20temple%20Iran.jpg"
  },
  {
    "wikidata_id": "Q1078422",
    "name": "吳城文化",
    "description": "Bronze Age Chinese culture",
    "longitude": 116.01,
    "latitude": 29.18,
    "cover_image_url": null
  },
  {
    "wikidata_id": "Q1157141",
    "name": "大佛寺石窟",
    "description": "archaeological site",
    "longitude": 107.99231,
    "latitude": 35.07346,
    "cover_image_url": null
  },
  {
    "wikidata_id": "Q1157409",
    "name": "大河村遗址",
    "description": "archaeological site",
    "longitude": 113.69396,
    "latitude": 34.84366,
    "cover_image_url": "http://commons.wikimedia.org/wiki/Special:FilePath/20241110%20House%20Foundations%20of%20Dahecun%20Site%2001.jpg"
  },
  {
    "wikidata_id": "Q1158530",
    "name": "大明宫",
    "description": "唐长安城东北部的宫殿",
    "longitude": 108.959444444,
    "latitude": 34.291388888,
    "cover_image_url": "http://commons.wikimedia.org/wiki/Special:FilePath/Daming%20Palace%20National%20Heritage%20Park%20-%20Danfeng%20Gate%2001.jpg"
  },
  {
    "wikidata_id": "Q1159394",
    "name": "丹丹乌里克遗址",
    "description": "archaeological site",
    "longitude": 81.073055555,
    "latitude": 37.774583333,
    "cover_image_url": "http://commons.wikimedia.org/wiki/Special:FilePath/Ancient%20Khotan%20BLER2%20AKV1%20FP246%20FIG30.jpg"
  },
  {
    "wikidata_id": "Q1159682",
    "name": "当阳峪窑",
    "description": "archaeological site",
    "longitude": 113.24192,
    "latitude": 35.27856,
    "cover_image_url": "http://commons.wikimedia.org/wiki/Special:FilePath/20250719%20Dangyangyu%20Porcelain%20Kiln%20Site%2003.jpg"
  },
  {
    "wikidata_id": "Q1192991",
    "name": "米兰遗址",
    "description": "archaeological site",
    "longitude": 88.939444444,
    "latitude": 39.234166666,
    "cover_image_url": "http://commons.wikimedia.org/wiki/Special:FilePath/Miran%20BLP466%20PHOTO1187%202%20165.jpg"
  },
  {
    "wikidata_id": "Q1025825",
    "name": "被焚之城",
    "description": "archaeological site in Sistan and Baluchistan Province, Iran",
    "longitude": 61.331944444,
    "latitude": 30.595277777,
    "cover_image_url": "http://commons.wikimedia.org/wiki/Special:FilePath/%DA%A9%D8%A7%D8%AE%20%D8%B3%D9%88%D8%AE%D8%AA%D9%87%20%D8%B4%D9%87%D8%B1%20%D8%B3%D9%88%D8%AD%D8%AA%D9%87.jpg"
  },
  {
    "wikidata_id": "Q1026048",
    "name": "菜园遗址",
    "description": "archaeological site",
    "longitude": 105.53931,
    "latitude": 36.533254,
    "cover_image_url": null
  },
  {
    "wikidata_id": "Q1058851",
    "name": "查海遗址",
    "description": "archaeological site",
    "longitude": 121.80148,
    "latitude": 42.18319,
    "cover_image_url": null
  },
  {
    "wikidata_id": "Q1060260",
    "name": "卡爾查延",
    "description": "archaeological site near Denov, Uzbekistan",
    "longitude": 67.97888889,
    "latitude": 38.29361111,
    "cover_image_url": "http://commons.wikimedia.org/wiki/Special:FilePath/Khalchayan%20statuette%2C%201st%20century%20BCE%20%28detail%29.jpg"
  },
  {
    "wikidata_id": "Q1062099",
    "name": "长沙铜官窑遗址",
    "description": "archaeological site",
    "longitude": 112.821716,
    "latitude": 28.420771,
    "cover_image_url": null
  },
  {
    "wikidata_id": "Q1062606",
    "name": "潮州窑",
    "description": "archaeological site",
    "longitude": 116.65613,
    "latitude": 23.66061,
    "cover_image_url": null
  },
  {
    "wikidata_id": "Q1069411",
    "name": "西夏陵",
    "description": "位於中國寧夏的西夏君主墓地",
    "longitude": 105.987167,
    "latitude": 38.435035,
    "cover_image_url": "http://commons.wikimedia.org/wiki/Special:FilePath/XiXia%20Tomb%203%20F.jpg"
  },
  {
    "wikidata_id": "Q1070056",
    "name": "城子崖遗址",
    "description": "中国考古遗址",
    "longitude": 117.35415,
    "latitude": 36.7358,
    "cover_image_url": "http://commons.wikimedia.org/wiki/Special:FilePath/Chengziya%20marker%202009%2003%2008.jpg"
  },
  {
    "wikidata_id": "Q1070074",
    "name": "陈家窝遗址",
    "description": "archaeological site",
    "longitude": 109.346139,
    "latitude": 34.243648,
    "cover_image_url": null
  },
  {
    "wikidata_id": "Q1149433",
    "name": "吉羅夫特文化",
    "description": "Early Bronze Age culture in Iran",
    "longitude": 57.766667,
    "latitude": 28.8,
    "cover_image_url": "http://commons.wikimedia.org/wiki/Special:FilePath/%D8%B4%D9%87%D8%B1%20%D9%82%D8%AF%DB%8C%D9%85%20%D8%AC%DB%8C%D8%B1%D9%81%D8%AA%202.jpg"
  },
  {
    "wikidata_id": "Q1149453",
    "name": "牛门洞遗址",
    "description": "archaeological site",
    "longitude": 104.75,
    "latitude": 35.9349,
    "cover_image_url": null
  },
  {
    "wikidata_id": "Q1151593",
    "name": "二里岗文化",
    "description": "考古文化",
    "longitude": 113.676,
    "latitude": 34.754,
    "cover_image_url": "http://commons.wikimedia.org/wiki/Special:FilePath/North-east%20early%20bronze%20age%20sites%20map.png"
  },
  {
    "wikidata_id": "Q1156509",
    "name": "大堡子山遗址及墓群",
    "description": "cemetery in Dabuzi, Longnan, Gansu, China",
    "longitude": 105.27282,
    "latitude": 34.2149784,
    "cover_image_url": "http://commons.wikimedia.org/wiki/Special:FilePath/Gold%20Foil%20Horse%20Head%20Armor%20Ornament%20in%20the%20Shape%20of%20Owl.jpg"
  },
  {
    "wikidata_id": "Q1156993",
    "name": "大甸子遗址",
    "description": "Bronze age archaeological site in Inner Mongolia (China)",
    "longitude": 120.60692,
    "latitude": 42.299967,
    "cover_image_url": null
  },
  {
    "wikidata_id": "Q1157029",
    "name": "大墩子遗址",
    "description": "archaeological site",
    "longitude": 117.96211,
    "latitude": 34.66036,
    "cover_image_url": null
  },
  {
    "wikidata_id": "Q1109678",
    "name": "Kul-e Farah",
    "description": "archaeological site in Iran",
    "longitude": 49.928333333,
    "latitude": 31.871944444,
    "cover_image_url": "http://commons.wikimedia.org/wiki/Special:FilePath/Boulder%20of%20Kul-e%20Farah%20III%20%28J.%20Alvarez-Mon%29.jpg"
  },
  {
    "wikidata_id": "Q1231981",
    "name": "扎赉诺尔墓群",
    "description": "archaeological site",
    "longitude": 117.7357,
    "latitude": 49.41315,
    "cover_image_url": null
  },
  {
    "wikidata_id": "Q1234019",
    "name": "克孜尔千佛洞",
    "description": "cave in People's Republic of China",
    "longitude": 82.504722222,
    "latitude": 41.784444444,
    "cover_image_url": "http://commons.wikimedia.org/wiki/Special:FilePath/Kizil%20caves%202006%2010%2001.jpg"
  },
  {
    "wikidata_id": "Q1265824",
    "name": "Djarkutan",
    "description": "prehistoric Bactrian proto-urban settlement, in present-day Uzbekistan",
    "longitude": 70.9333,
    "latitude": 41.0333,
    "cover_image_url": null
  },
  {
    "wikidata_id": "Q1266095",
    "name": "驼山石窟",
    "description": "translated as \"Camel Mountain\", a mountain in Shandong Province, China",
    "longitude": 118.430852,
    "latitude": 36.648956,
    "cover_image_url": "http://commons.wikimedia.org/wiki/Special:FilePath/%E9%A9%BC%E5%B1%B1%E7%9F%B3%E7%AA%9F%E5%9B%BD%E4%BF%9D.JPG"
  },
  {
    "wikidata_id": "Q1266141",
    "name": "哈夫特·提埤",
    "description": "archaeological site",
    "longitude": 48.326389,
    "latitude": 32.078889,
    "cover_image_url": "http://commons.wikimedia.org/wiki/Special:FilePath/Grabgew%C3%B6lbe%20Haft%20Tepe.JPG"
  },
  {
    "wikidata_id": "Q1317169",
    "name": "喇家遗址",
    "description": "位于中國青海省的一处遗址，距今约4000年",
    "longitude": 102.80441,
    "latitude": 35.86491,
    "cover_image_url": "http://commons.wikimedia.org/wiki/Special:FilePath/Lajia%20ruins.jpg"
  },
  {
    "wikidata_id": "Q1319390",
    "name": "石钟山石窟",
    "description": "cave in People's Republic of China",
    "longitude": 99.836423055,
    "latitude": 26.360086111,
    "cover_image_url": "http://commons.wikimedia.org/wiki/Special:FilePath/Shibaoshan%20shizhongsi.JPG"
  },
  {
    "wikidata_id": "Q1093199",
    "name": "慈善寺石窟",
    "description": "cave in People's Republic of China",
    "longitude": 107.834734,
    "latitude": 34.677788,
    "cover_image_url": null
  },
  {
    "wikidata_id": "Q1094563",
    "name": "磁灶窑址",
    "description": "archaeological site",
    "longitude": 118.46746,
    "latitude": 24.85351,
    "cover_image_url": null
  },
  {
    "wikidata_id": "Q1100519",
    "name": "達爾弗津丘",
    "description": "human settlement",
    "longitude": 67.86055556,
    "latitude": 38.10111111,
    "cover_image_url": "http://commons.wikimedia.org/wiki/Special:FilePath/Dalverzine%20Tepe%20-%20Denau%20-%20Surkhandarya.JPG"
  },
  {
    "wikidata_id": "Q1179434",
    "name": "哈杰赫山",
    "description": "black basalt hill in Lake Hamun, Sistan and Baluchestan province, Iran",
    "longitude": 61.244444444,
    "latitude": 30.943888888,
    "cover_image_url": "http://commons.wikimedia.org/wiki/Special:FilePath/Mount%20Khajeh.jpg"
  },
  {
    "wikidata_id": "Q1196056",
    "name": "马王堆汉墓",
    "description": "长沙西汉墓葬",
    "longitude": 113.021667,
    "latitude": 28.208611,
    "cover_image_url": "http://commons.wikimedia.org/wiki/Special:FilePath/Mawangduihanmu.jpg"
  },
  {
    "wikidata_id": "Q1196070",
    "name": "曾侯乙墓",
    "description": "戰國時代墓葬",
    "longitude": 113.3449,
    "latitude": 31.7309,
    "cover_image_url": "http://commons.wikimedia.org/wiki/Special:FilePath/Zenghouyi%20-%20IMG%205811.JPG"
  },
  {
    "wikidata_id": "Q1209075",
    "name": "钓鱼台遗址",
    "description": "archaeological site",
    "longitude": 114.61458,
    "latitude": 38.557,
    "cover_image_url": null
  },
  {
    "wikidata_id": "Q1226465",
    "name": "顶蛳山遗址",
    "description": "archaeological site",
    "longitude": 108.46863,
    "latitude": 22.72588,
    "cover_image_url": null
  },
  {
    "wikidata_id": "Q1289909",
    "name": "高颐墓阙及石刻",
    "description": "",
    "longitude": 103.05277778,
    "latitude": 30.02333333,
    "cover_image_url": null
  },
  {
    "wikidata_id": "Q1350906",
    "name": "汉阳陵",
    "description": "汉景帝刘启陵墓",
    "longitude": 108.94071111,
    "latitude": 34.44379722,
    "cover_image_url": "http://commons.wikimedia.org/wiki/Special:FilePath/Han%20Yang%20Ling%2001.JPG"
  },
  {
    "wikidata_id": "Q1436244",
    "name": "曲村—天马遗址",
    "description": "archaeological site",
    "longitude": 111.56281,
    "latitude": 35.7357,
    "cover_image_url": null
  },
  {
    "wikidata_id": "Q1455687",
    "name": "吐虎鲁克·铁木尔汗麻扎",
    "description": "cemetery in Ili Kazakh Autonomous Prefecture, China",
    "longitude": 80.53316667,
    "latitude": 44.24019444,
    "cover_image_url": "http://commons.wikimedia.org/wiki/Special:FilePath/Tughlugh%20Timur%20Mausoleum%20-%20exterior.jpg"
  },
  {
    "wikidata_id": "Q1344314",
    "name": "老官台文化",
    "description": "neolithic culture in China",
    "longitude": 105.913611111,
    "latitude": 35.010277777,
    "cover_image_url": "http://commons.wikimedia.org/wiki/Special:FilePath/Distant%20dialogue%20exhibition%20of%20Dadiwan%20site%2C%202017-03-04%2008.jpg"
  },
  {
    "wikidata_id": "Q1453193",
    "name": "五陵",
    "description": "",
    "longitude": 108.87657,
    "latitude": 34.43479,
    "cover_image_url": null
  },
  {
    "wikidata_id": "Q1475314",
    "name": "富盛窑址",
    "description": "archaeological site",
    "longitude": 120.72207,
    "latitude": 29.95736,
    "cover_image_url": "http://commons.wikimedia.org/wiki/Special:FilePath/Fusheng%20Kiln%20Site%20national%20protection%20stele%201.jpg"
  },
  {
    "wikidata_id": "Q1551277",
    "name": "朱然墓",
    "description": "cemetery in Tomb of Zhu Ran, China",
    "longitude": 118.48888889,
    "latitude": 31.67083333,
    "cover_image_url": null
  },
  {
    "wikidata_id": "Q1241354",
    "name": "皮央和东嘎遗址",
    "description": "archaeological site in Tholing, Zanda County, Ngari, Tibet, China",
    "longitude": 79.831167,
    "latitude": 31.67227,
    "cover_image_url": null
  },
  {
    "wikidata_id": "Q1241365",
    "name": "东谷坨遗址",
    "description": "archaeological site",
    "longitude": 114.66972222,
    "latitude": 40.22277778,
    "cover_image_url": null
  },
  {
    "wikidata_id": "Q1241489",
    "name": "东岳石遗址",
    "description": "archaeological site",
    "longitude": 119.89869,
    "latitude": 36.989341,
    "cover_image_url": null
  },
  {
    "wikidata_id": "Q1274372",
    "name": "邺",
    "description": "中国古代国都遗址",
    "longitude": 114.4002,
    "latitude": 36.2748,
    "cover_image_url": null
  },
  {
    "wikidata_id": "Q1275633",
    "name": "炭河里遗址",
    "description": "archaeological site",
    "longitude": 112.1063,
    "latitude": 28.156,
    "cover_image_url": "http://commons.wikimedia.org/wiki/Special:FilePath/%E5%9B%9B%E7%BE%8A%E6%96%B9%E5%B0%8A.jpg"
  },
  {
    "wikidata_id": "Q1325904",
    "name": "Musasir",
    "description": "ancient city of Urartu",
    "longitude": 46,
    "latitude": 36,
    "cover_image_url": "http://commons.wikimedia.org/wiki/Special:FilePath/Musasir%202.jpg"
  },
  {
    "wikidata_id": "Q1329268",
    "name": "尼雅遺址",
    "description": "archaeological site",
    "longitude": 82.771896,
    "latitude": 37.822685,
    "cover_image_url": "http://commons.wikimedia.org/wiki/Special:FilePath/Niya%20batik.jpg"
  },
  {
    "wikidata_id": "Q1330939",
    "name": "交河故城",
    "description": "西域古城",
    "longitude": 89.06393051,
    "latitude": 42.95051742,
    "cover_image_url": "http://commons.wikimedia.org/wiki/Special:FilePath/Turpan-jiaohe-ruinas-d27.jpg"
  },
  {
    "wikidata_id": "Q1375359",
    "name": "Qal’aliqir",
    "description": "",
    "longitude": 59.53611111,
    "latitude": 41.80083333,
    "cover_image_url": null
  },
  {
    "wikidata_id": "Q1524536",
    "name": "阖闾城遗址",
    "description": "archaeological site",
    "longitude": 120.111111111,
    "latitude": 31.513888888,
    "cover_image_url": null
  },
  {
    "wikidata_id": "Q1526632",
    "name": "青山墓群",
    "description": "cemetery in Yichang, China",
    "longitude": 111.878417,
    "latitude": 30.588261,
    "cover_image_url": null
  },
  {
    "wikidata_id": "Q1302971",
    "name": "貢德沙布爾",
    "description": "Sassanid city in Dezful County, Iranian national heritage site",
    "longitude": 48.516666666,
    "latitude": 32.283333333,
    "cover_image_url": "http://commons.wikimedia.org/wiki/Special:FilePath/Ancient%20City%20of%20Gandhi%20Shapour%2002.jpg"
  },
  {
    "wikidata_id": "Q1377456",
    "name": "苏巴什佛寺遗址",
    "description": "文物保护单位",
    "longitude": 83.04702778,
    "latitude": 41.85580556,
    "cover_image_url": "http://commons.wikimedia.org/wiki/Special:FilePath/SariraCasket.jpg"
  },
  {
    "wikidata_id": "Q1377754",
    "name": "万发拨子遗址",
    "description": "archaeological site",
    "longitude": 125.92487,
    "latitude": 41.692676,
    "cover_image_url": null
  },
  {
    "wikidata_id": "Q1385902",
    "name": "寿州窑",
    "description": "archaeological site",
    "longitude": 117.15601,
    "latitude": 32.71637,
    "cover_image_url": null
  },
  {
    "wikidata_id": "Q1387840",
    "name": "巩县石窟",
    "description": "cave in People's Republic of China",
    "longitude": 113.02388889,
    "latitude": 34.81333333,
    "cover_image_url": "http://commons.wikimedia.org/wiki/Special:FilePath/%E5%B7%A9%E5%8E%BF%E7%9F%B3%E7%AA%9F%E5%AF%BA.jpg"
  },
  {
    "wikidata_id": "Q1469980",
    "name": "铁店窑遗址",
    "description": "archaeological site",
    "longitude": 119.504314,
    "latitude": 28.997937,
    "cover_image_url": "http://commons.wikimedia.org/wiki/Special:FilePath/Jinhua%20Tiedian-Yao%20Yizhi%202016.12.04%2010-30-13.jpg"
  },
  {
    "wikidata_id": "Q1500653",
    "name": "中山王墓",
    "description": "cemetery in China",
    "longitude": 114.1972,
    "latitude": 38.32775,
    "cover_image_url": "http://commons.wikimedia.org/wiki/Special:FilePath/Zhongshan%20Zhaoyutu.jpg"
  },
  {
    "wikidata_id": "Q1518300",
    "name": "赫卡通皮洛斯",
    "description": "former city in Persia",
    "longitude": 54.0375,
    "latitude": 35.961666666,
    "cover_image_url": null
  },
  {
    "wikidata_id": "Q1574082",
    "name": "所药村壁画墓",
    "description": "cemetery in Wangdu County, China",
    "longitude": 115.15282,
    "latitude": 38.71015,
    "cover_image_url": null
  },
  {
    "wikidata_id": "Q1574091",
    "name": "汉中山王墓",
    "description": "cemetery in Dingzhou, China",
    "longitude": 114.98392,
    "latitude": 38.51883,
    "cover_image_url": null
  },
  {
    "wikidata_id": "Q1581555",
    "name": "錫亞勒克台形遺址",
    "description": "archaeological site in Kashan, Iranian national heritage site",
    "longitude": 51.404722222,
    "latitude": 33.968888888,
    "cover_image_url": "http://commons.wikimedia.org/wiki/Special:FilePath/Sialk%20slide.jpg"
  },
  {
    "wikidata_id": "Q1584528",
    "name": "黑城遗址",
    "description": "ruins of a medieval city in western Inner Mongolia",
    "longitude": 101.145,
    "latitude": 41.765,
    "cover_image_url": "http://commons.wikimedia.org/wiki/Special:FilePath/Khara-khoto.jpg"
  },
  {
    "wikidata_id": "Q1620366",
    "name": "邢窑遗址",
    "description": "archaeological site",
    "longitude": 114.51062,
    "latitude": 37.29065,
    "cover_image_url": null
  },
  {
    "wikidata_id": "Q1636129",
    "name": "辉发城址",
    "description": "archaeological site",
    "longitude": 126.18538,
    "latitude": 42.73628,
    "cover_image_url": null
  },
  {
    "wikidata_id": "Q1638941",
    "name": "湖泗瓷窑址群",
    "description": "archaeological site",
    "longitude": 114.45042,
    "latitude": 30.06106,
    "cover_image_url": null
  },
  {
    "wikidata_id": "Q1639229",
    "name": "湖田窑",
    "description": "archaeological site",
    "longitude": 117.24559,
    "latitude": 29.28684,
    "cover_image_url": "http://commons.wikimedia.org/wiki/Special:FilePath/Jingdezhen%20Hutian%20Yaozhi%202017.12.30%2016-02-11.jpg"
  },
  {
    "wikidata_id": "Q1705802",
    "name": "波伊肯特",
    "description": "human settlement in Uzbekistan",
    "longitude": 64.0116725,
    "latitude": 39.5870597,
    "cover_image_url": "http://commons.wikimedia.org/wiki/Special:FilePath/%C2%AB%D0%9F%D0%B0%D0%B9%D0%BA%D0%B5%D0%BD%D1%82%C2%BB%20%D1%82%D0%B0%D0%B1%D0%B8%D0%B8%D0%B9%20%D1%91%D0%B4%D0%B3%D0%BE%D1%80%D0%BB%D0%B8%D0%B3%D0%B8.png"
  },
  {
    "wikidata_id": "Q1716800",
    "name": "须弥山石窟",
    "description": "中国宁夏石窟",
    "longitude": 105.98527778,
    "latitude": 36.27444444,
    "cover_image_url": "http://commons.wikimedia.org/wiki/Special:FilePath/%E5%9B%BA%E5%8E%9F%E9%A1%BB%E5%BC%A5%E5%B1%B1%E7%9F%B3%E7%AA%9F%E7%AC%AC5%E7%AA%9F%E5%A4%A7%E4%BD%9B%E6%A5%BC.JPG"
  },
  {
    "wikidata_id": "Q1720577",
    "name": "柳湾遗址",
    "description": "archaeological site in People's Republic of China",
    "longitude": 102.560958,
    "latitude": 36.446432,
    "cover_image_url": null
  },
  {
    "wikidata_id": "Q1721528",
    "name": "宋陵",
    "description": "北宋皇室的陵墓群，位于河南省巩义市",
    "longitude": 112.95455,
    "latitude": 34.66542,
    "cover_image_url": "http://commons.wikimedia.org/wiki/Special:FilePath/20230216%20Yongzhao%20Mausoleum%2001.jpg"
  },
  {
    "wikidata_id": "Q1529997",
    "name": "克孜尔尕哈石窟",
    "description": "archaeological site",
    "longitude": 82.902844,
    "latitude": 41.798406,
    "cover_image_url": "http://commons.wikimedia.org/wiki/Special:FilePath/Kizilgaha%20Cave%2030%20mural.jpg"
  },
  {
    "wikidata_id": "Q1530403",
    "name": "纳克什拉贾卜",
    "description": "Iranian national heritage site",
    "longitude": 52.887305555,
    "latitude": 29.966527777,
    "cover_image_url": "http://commons.wikimedia.org/wiki/Special:FilePath/Naqsh-e%20Rajab%20-%20Shapur%20parade.jpg"
  },
  {
    "wikidata_id": "Q1533106",
    "name": "萨拉乌苏遗址",
    "description": "archeological location in Inner-Mongolia",
    "longitude": 108.543282,
    "latitude": 37.71838,
    "cover_image_url": null
  },
  {
    "wikidata_id": "Q1632877",
    "name": "花山岩画",
    "description": "世界遗产",
    "longitude": 107.042276,
    "latitude": 22.248327,
    "cover_image_url": "http://commons.wikimedia.org/wiki/Special:FilePath/Rock%20painting%20hua%20mountain%202.jpg"
  },
  {
    "wikidata_id": "Q1632879",
    "name": "花石浪遗址",
    "description": "archaeological site",
    "longitude": 110.15979,
    "latitude": 34.12652,
    "cover_image_url": null
  },
  {
    "wikidata_id": "Q1721530",
    "name": "唐十八陵",
    "description": "archaeological site in Pucheng County, Shaanxi, People's Republic of China",
    "longitude": 109.66916,
    "latitude": 35.03444,
    "cover_image_url": "http://commons.wikimedia.org/wiki/Special:FilePath/Qianling%20Mausoleum%2003%202013-08.JPG"
  },
  {
    "wikidata_id": "Q1723733",
    "name": "康家遗址",
    "description": "西安市临潼区新石器时代龙山文化遗址",
    "longitude": 109.3736,
    "latitude": 34.58389,
    "cover_image_url": null
  },
  {
    "wikidata_id": "Q1401634",
    "name": "飞来峰造像",
    "description": "Caves and rock faces in Hangzhou, China, decorated with Buddhist art",
    "longitude": 120.09777778,
    "latitude": 30.24194444,
    "cover_image_url": "http://commons.wikimedia.org/wiki/Special:FilePath/Feilaifeng%20zaoxiang%207577.jpg"
  },
  {
    "wikidata_id": "Q1404141",
    "name": "阴山岩画",
    "description": "archaeological site",
    "longitude": 106.80242,
    "latitude": 40.95992,
    "cover_image_url": null
  },
  {
    "wikidata_id": "Q1404412",
    "name": "皇泽寺摩崖造像",
    "description": "Buddhist temple near Guangyuan, China",
    "longitude": 105.81083333,
    "latitude": 32.44138889,
    "cover_image_url": "http://commons.wikimedia.org/wiki/Special:FilePath/%E7%9A%87%E6%B3%BD%E5%AF%BA%E6%91%A9%E5%B4%96%E9%80%A0%E5%83%8F%E7%85%A7%E7%89%87.JPG"
  },
  {
    "wikidata_id": "Q1407451",
    "name": "龙骨坡遗址",
    "description": "archaeological site",
    "longitude": 109.665769612,
    "latitude": 30.863076943,
    "cover_image_url": null
  },
  {
    "wikidata_id": "Q1479926",
    "name": "浙南石棚墓群",
    "description": "cemetery in Cangnan County, China",
    "longitude": 120.523071,
    "latitude": 27.611782,
    "cover_image_url": "http://commons.wikimedia.org/wiki/Special:FilePath/Ruian%20Qipanshan%20Shipengmu.jpg"
  },
  {
    "wikidata_id": "Q1480848",
    "name": "三星村遗址",
    "description": "archaeological site",
    "longitude": 119.48883,
    "latitude": 31.68449,
    "cover_image_url": null
  },
  {
    "wikidata_id": "Q1484199",
    "name": "特佩·萨尔",
    "description": "Neolithic and Bronze Age site in northern Iran",
    "longitude": 54.384964,
    "latitude": 36.154544,
    "cover_image_url": "http://commons.wikimedia.org/wiki/Special:FilePath/Tapehesar.jpg"
  },
  {
    "wikidata_id": "Q1552032",
    "name": "杨台寺遗址",
    "description": "archaeological site",
    "longitude": 113.90784,
    "latitude": 33.03264,
    "cover_image_url": null
  },
  {
    "wikidata_id": "Q1537174",
    "name": "公王岭遗址",
    "description": "archaeological site",
    "longitude": 109.494149,
    "latitude": 34.183534,
    "cover_image_url": null
  },
  {
    "wikidata_id": "Q1540418",
    "name": "南莊頭遺址",
    "description": "archaeological site",
    "longitude": 115.662248,
    "latitude": 39.126648,
    "cover_image_url": null
  },
  {
    "wikidata_id": "Q1726220",
    "name": "元君庙—泉护村遗址",
    "description": "archaeological site in People's Republic of China",
    "longitude": 109.87105,
    "latitude": 34.5364,
    "cover_image_url": null
  },
  {
    "wikidata_id": "Q1727171",
    "name": "辽阳壁画墓群",
    "description": "archaeological site in Liaoyang, People's Republic of China",
    "longitude": 123.17055556,
    "latitude": 41.31611111,
    "cover_image_url": null
  },
  {
    "wikidata_id": "Q1771337",
    "name": "祖赞",
    "description": "village in Khaf County, Iran",
    "longitude": 59.869444444,
    "latitude": 34.3475,
    "cover_image_url": "http://commons.wikimedia.org/wiki/Special:FilePath/ZuzanHistoricalVillage2.jpg"
  },
  {
    "wikidata_id": "Q1493549",
    "name": "缸瓦窑",
    "description": "archaeological site",
    "longitude": 118.51232,
    "latitude": 42.13165,
    "cover_image_url": null
  },
  {
    "wikidata_id": "Q1493682",
    "name": "感驮岩遗址",
    "description": "archaeological site",
    "longitude": 105.84033,
    "latitude": 23.4153,
    "cover_image_url": null
  },
  {
    "wikidata_id": "Q1493795",
    "name": "高庙遗址",
    "description": "archaeological site",
    "longitude": 110.15691,
    "latitude": 27.36254,
    "cover_image_url": null
  },
  {
    "wikidata_id": "Q1495655",
    "name": "马蹄寺石窟群",
    "description": "archaeological site",
    "longitude": 100.4173,
    "latitude": 38.4843,
    "cover_image_url": "http://commons.wikimedia.org/wiki/Special:FilePath/Matisi%20Gisela-Brantl%2018.JPG"
  },
  {
    "wikidata_id": "Q1563993",
    "name": "西海郡故城遗址",
    "description": "archaeological site",
    "longitude": 100.98025,
    "latitude": 36.90669,
    "cover_image_url": null
  },
  {
    "wikidata_id": "Q1574077",
    "name": "中山靖王墓",
    "description": "archaeological site",
    "longitude": 115.28861111,
    "latitude": 38.94722222,
    "cover_image_url": "http://commons.wikimedia.org/wiki/Special:FilePath/ChangXingongdeng.jpg"
  },
  {
    "wikidata_id": "Q1574080",
    "name": "打虎亭汉墓",
    "description": "archaeological site",
    "longitude": 113.28666667,
    "latitude": 34.51305556,
    "cover_image_url": "http://commons.wikimedia.org/wiki/Special:FilePath/Dahuting%20mural%2C%20Eastern%20Han%20Dynasty.jpg"
  },
  {
    "wikidata_id": "Q1679526",
    "name": "Teshik-Tash",
    "description": "archaeological site in Uzbekistan",
    "longitude": 67.15651111,
    "latitude": 37.96596389,
    "cover_image_url": "http://commons.wikimedia.org/wiki/Special:FilePath/Skull%20of%20Teshik-Tash%20Boy.jpg"
  },
  {
    "wikidata_id": "Q1739758",
    "name": "客省庄遗址",
    "description": "archaeological site in People's Republic of China",
    "longitude": 108.7298,
    "latitude": 34.2105,
    "cover_image_url": null
  },
  {
    "wikidata_id": "Q1781415",
    "name": "塔温搭里哈遗址",
    "description": "archaeological site in People's Republic of China",
    "longitude": 97.33524,
    "latitude": 35.85942,
    "cover_image_url": null
  },
  {
    "wikidata_id": "Q1877546",
    "name": "落笔洞遗址",
    "description": "cave in People's Republic of China",
    "longitude": 109.54813,
    "latitude": 18.33062,
    "cover_image_url": null
  },
  {
    "wikidata_id": "Q1877548",
    "name": "罗泊湾一号墓",
    "description": "cemetery in China",
    "longitude": 109.644373,
    "latitude": 23.091316,
    "cover_image_url": null
  },
  {
    "wikidata_id": "Q1877565",
    "name": "骆驼城遗址",
    "description": "archaeological site in Gaotai County, People's Republic of China",
    "longitude": 99.569389,
    "latitude": 39.346246,
    "cover_image_url": null
  },
  {
    "wikidata_id": "Q1877784",
    "name": "鹿台岗遗址",
    "description": "archaeological site in Qi County, People's Republic of China",
    "longitude": 114.890605,
    "latitude": 34.52698,
    "cover_image_url": null
  },
  {
    "wikidata_id": "Q1989890",
    "name": "Nihewan-Becken",
    "description": "archaeological site in People's Republic of China",
    "longitude": 114.630851,
    "latitude": 40.256101,
    "cover_image_url": null
  },
  {
    "wikidata_id": "Q1800426",
    "name": "天梯山石窟",
    "description": "building in Tiantishan Grottoes, China",
    "longitude": 102.74027778,
    "latitude": 37.56555556,
    "cover_image_url": "http://commons.wikimedia.org/wiki/Special:FilePath/Tiantishan%20Grotto%20Budda.jpg"
  },
  {
    "wikidata_id": "Q1926625",
    "name": "庙后山遗址",
    "description": "archaeological site in People's Republic of China",
    "longitude": 124.12857,
    "latitude": 41.23066,
    "cover_image_url": null
  },
  {
    "wikidata_id": "Q1926629",
    "name": "廟底溝文化",
    "description": "Neolithic site in China",
    "longitude": 111.44968987,
    "latitude": 34.72327275,
    "cover_image_url": null
  },
  {
    "wikidata_id": "Q1926630",
    "name": "庙子沟遗址",
    "description": "",
    "longitude": 113.35492,
    "latitude": 40.7555,
    "cover_image_url": null
  },
  {
    "wikidata_id": "Q2133750",
    "name": "热瓦克佛寺遗址",
    "description": "Buddhist stupa located on the southern rim of the Taklamakan Desert in China",
    "longitude": 80.159147,
    "latitude": 37.349075,
    "cover_image_url": "http://commons.wikimedia.org/wiki/Special:FilePath/Rawak%20BLP470%20PHOTO1125%2016%20387.jpg"
  },
  {
    "wikidata_id": "Q1736445",
    "name": "跨湖桥遗址",
    "description": "Archaeological site in China",
    "longitude": 120.21833333,
    "latitude": 30.14416667,
    "cover_image_url": "http://commons.wikimedia.org/wiki/Special:FilePath/%E8%B7%A8%E6%B9%96%E6%A1%A5%E9%81%97%E5%9D%80%E5%8D%9A%E7%89%A9%E9%A6%86%2C%202022-05-21%2006.jpg"
  },
  {
    "wikidata_id": "Q1760296",
    "name": "Q1760296",
    "description": "archaeological site in People's Republic of China",
    "longitude": 114.064364,
    "latitude": 22.354767,
    "cover_image_url": null
  },
  {
    "wikidata_id": "Q1764282",
    "name": "八剌沙衮",
    "description": "ancient Sogdian city in modern-day Kyrgyzstan",
    "longitude": 75.248425,
    "latitude": 42.74759,
    "cover_image_url": "http://commons.wikimedia.org/wiki/Special:FilePath/Balasagun%20ruins.jpg"
  },
  {
    "wikidata_id": "Q1767796",
    "name": "大定府",
    "description": "archaeological site in Inner Mongolia, People's Republic of China",
    "longitude": 119.15555556,
    "latitude": 41.56972222,
    "cover_image_url": null
  },
  {
    "wikidata_id": "Q1778980",
    "name": "Koktepe",
    "description": "archaeological site in Uzbekistan",
    "longitude": 66.91805556,
    "latitude": 39.89333333,
    "cover_image_url": null
  },
  {
    "wikidata_id": "Q1866572",
    "name": "鲤鱼嘴遗址",
    "description": "archaeological site in Liuzhou, People's Republic of China",
    "longitude": 109.4075,
    "latitude": 24.28194444,
    "cover_image_url": "http://commons.wikimedia.org/wiki/Special:FilePath/Liuzhou%20Liyuzui%20Yizhi%202014.03.03%2012-26-59.jpg"
  },
  {
    "wikidata_id": "Q1869570",
    "name": "龙虬庄遗址",
    "description": "archaeological site in Gaoyou, People's Republic of China",
    "longitude": 119.508279,
    "latitude": 32.831885,
    "cover_image_url": "http://commons.wikimedia.org/wiki/Special:FilePath/%E9%BE%99%E8%99%AC%E5%BA%84%E9%81%97%E5%9D%80.jpg"
  },
  {
    "wikidata_id": "Q1869578",
    "name": "龙山石窟",
    "description": "Caves in Shaanxi China",
    "longitude": 112.429659,
    "latitude": 37.732073,
    "cover_image_url": "http://commons.wikimedia.org/wiki/Special:FilePath/Taiyuan%20longshanshiku.JPG"
  },
  {
    "wikidata_id": "Q1688860",
    "name": "賈湖遺址",
    "description": "裴李岗文化文化遗址",
    "longitude": 113.661403,
    "latitude": 33.614398,
    "cover_image_url": "http://commons.wikimedia.org/wiki/Special:FilePath/Neolithic%20bone%20flute.jpg"
  },
  {
    "wikidata_id": "Q1688891",
    "name": "姜寨遗址",
    "description": "historic site in Xi'an, China",
    "longitude": 109.207851111,
    "latitude": 34.380713055,
    "cover_image_url": null
  },
  {
    "wikidata_id": "Q1689733",
    "name": "吉州窑",
    "description": "pottery from Jiangxi, China",
    "longitude": 115.01491,
    "latitude": 27.02898,
    "cover_image_url": null
  },
  {
    "wikidata_id": "Q1692194",
    "name": "卡若遗址",
    "description": "neolithic culture in Tibet",
    "longitude": 97.208377,
    "latitude": 31.060039,
    "cover_image_url": null
  },
  {
    "wikidata_id": "Q1740592",
    "name": "琉璃河遗址",
    "description": "archaeological site, History museum in Beijing",
    "longitude": 116.05,
    "latitude": 39.6153,
    "cover_image_url": "http://commons.wikimedia.org/wiki/Special:FilePath/%E7%90%89%E7%92%83%E6%B2%B3%E9%81%97%E5%9D%80.jpg"
  },
  {
    "wikidata_id": "Q1792935",
    "name": "Kurangun",
    "description": "archaeological site in Iran",
    "longitude": 51.47277778,
    "latitude": 30.185,
    "cover_image_url": "http://commons.wikimedia.org/wiki/Special:FilePath/Kurangun%20panels%2C%202009-05-08.jpg"
  },
  {
    "wikidata_id": "Q1794368",
    "name": "賽羅波利斯",
    "description": "ancient Achaemenid city in Central Asia",
    "longitude": 66.8736,
    "latitude": 36.7731,
    "cover_image_url": "http://commons.wikimedia.org/wiki/Special:FilePath/Map%20of%20the%20Achaemenid%20Empire.jpg"
  },
  {
    "wikidata_id": "Q1882629",
    "name": "马厂塬遗址",
    "description": "archaeological site in People's Republic of China",
    "longitude": 102.857366,
    "latitude": 36.328498,
    "cover_image_url": null
  },
  {
    "wikidata_id": "Q1885375",
    "name": "麦积山石窟",
    "description": "中国甘肃天水市佛教石窟",
    "longitude": 106.005973,
    "latitude": 34.350136,
    "cover_image_url": "http://commons.wikimedia.org/wiki/Special:FilePath/Majishan%20entire%20hill%2020090226.jpg"
  },
  {
    "wikidata_id": "Q1892008",
    "name": "汉茂陵",
    "description": "mausoleum of Emperor Wu of Han",
    "longitude": 108.569597,
    "latitude": 34.338259,
    "cover_image_url": "http://commons.wikimedia.org/wiki/Special:FilePath/Maoling.JPG"
  },
  {
    "wikidata_id": "Q2097540",
    "name": "皮央石窟遗址",
    "description": "archaeological site in Tholing, Zanda County, Ngari, Tibet, China",
    "longitude": 79.79611111,
    "latitude": 31.68222222,
    "cover_image_url": null
  },
  {
    "wikidata_id": "Q2171435",
    "name": "汝瓷",
    "description": "Chinese pottery made by the Song dynasty around 1100 AD",
    "longitude": 112.85644,
    "latitude": 33.92719,
    "cover_image_url": "http://commons.wikimedia.org/wiki/Special:FilePath/Ru%20ware%2C%20Percival%20David%20Collection%20DSCF3044.jpg"
  },
  {
    "wikidata_id": "Q2341637",
    "name": "武氏祠",
    "description": "archaeological site in Shandong, People's Republic of China",
    "longitude": 116.342489505,
    "latitude": 35.283046401,
    "cover_image_url": "http://commons.wikimedia.org/wiki/Special:FilePath/Xuanyuanhuangdi.jpg"
  },
  {
    "wikidata_id": "Q2388538",
    "name": "太和城遗址",
    "description": "archaeological site in People's Republic of China",
    "longitude": 100.19709,
    "latitude": 25.63625,
    "cover_image_url": "http://commons.wikimedia.org/wiki/Special:FilePath/Taihe%20Dali.JPG"
  },
  {
    "wikidata_id": "Q2388924",
    "name": "台西遗址",
    "description": "archaeological site in People's Republic of China",
    "longitude": 114.71796,
    "latitude": 38.04421,
    "cover_image_url": null
  },
  {
    "wikidata_id": "Q2390486",
    "name": "德里·巴昆",
    "description": "archaeological site in Iran",
    "longitude": 52.88,
    "latitude": 29.91,
    "cover_image_url": null
  },
  {
    "wikidata_id": "Q1817735",
    "name": "巴彥阿烏爾國家公園",
    "description": "national park in Kazakhstan",
    "longitude": 75.6,
    "latitude": 50.8,
    "cover_image_url": "http://commons.wikimedia.org/wiki/Special:FilePath/Mount%20Bulka.jpg"
  },
  {
    "wikidata_id": "Q2145631",
    "name": "热水墓群",
    "description": "中國青海省考古遺址",
    "longitude": 98.29854,
    "latitude": 36.178476,
    "cover_image_url": null
  },
  {
    "wikidata_id": "Q1826755",
    "name": "林家遗址",
    "description": "archaeological site in Dongxiang Autonomous County, People's Republic of China",
    "longitude": 103.2671,
    "latitude": 35.6583,
    "cover_image_url": null
  },
  {
    "wikidata_id": "Q1955861",
    "name": "木梯寺石窟",
    "description": "cave in People's Republic of China",
    "longitude": 104.6903,
    "latitude": 34.68945,
    "cover_image_url": null
  },
  {
    "wikidata_id": "Q1964730",
    "name": "南石窟寺",
    "description": "cave temple in Jingchuan County, Gansu, China",
    "longitude": 107.4486,
    "latitude": 35.3634,
    "cover_image_url": null
  },
  {
    "wikidata_id": "Q1964796",
    "name": "南佐遗址",
    "description": "archaeological site in People's Republic of China",
    "longitude": 107.59865,
    "latitude": 35.68777,
    "cover_image_url": null
  },
  {
    "wikidata_id": "Q1973845",
    "name": "塔什拉巴特",
    "description": "Archaeological site in Kyrgyzstan",
    "longitude": 75.288888888,
    "latitude": 40.823055555,
    "cover_image_url": "http://commons.wikimedia.org/wiki/Special:FilePath/Tash%20Rabat%20in%20mountains.jpg"
  },
  {
    "wikidata_id": "Q2071319",
    "name": "卡諾 珊朵",
    "description": "archaeological site",
    "longitude": 57.7792,
    "latitude": 28.4632,
    "cover_image_url": "http://commons.wikimedia.org/wiki/Special:FilePath/%D8%AA%D9%BE%D9%87%20%DA%A9%D9%86%D8%A7%D8%B1%20%D8%B5%D9%86%D8%AF%D9%84%20%D8%AC%D9%86%D9%88%D8%A8%DB%8C.jpg"
  },
  {
    "wikidata_id": "Q2167520",
    "name": "阿弗拉西阿卜遗址",
    "description": "archaeological site in Uzbekistan",
    "longitude": 66.987708333,
    "latitude": 39.671325,
    "cover_image_url": "http://commons.wikimedia.org/wiki/Special:FilePath/Afrasiab%20-%20details%20from%20The%20Ambassadors%27%20Painting.JPG"
  },
  {
    "wikidata_id": "Q2470528",
    "name": "千岛湖",
    "description": "浙江水庫",
    "longitude": 118.99,
    "latitude": 29.609166666,
    "cover_image_url": "http://commons.wikimedia.org/wiki/Special:FilePath/Thousand%20Island%20Lake.JPG"
  },
  {
    "wikidata_id": "Q2121566",
    "name": "錢山漾遺址",
    "description": "archaeological site in Wuxing District, People's Republic of China",
    "longitude": 120.14153,
    "latitude": 30.81699,
    "cover_image_url": null
  },
  {
    "wikidata_id": "Q2123692",
    "name": "瞿昙寺",
    "description": "building in China",
    "longitude": 102.29611111,
    "latitude": 36.355,
    "cover_image_url": "http://commons.wikimedia.org/wiki/Special:FilePath/Qutan%20Gruschke.jpg"
  },
  {
    "wikidata_id": "Q2360265",
    "name": "秦咸阳城",
    "description": "秦国都城",
    "longitude": 108.857778,
    "latitude": 34.413889,
    "cover_image_url": "http://commons.wikimedia.org/wiki/Special:FilePath/1962-05%201962%E5%B9%B4%20%E9%99%95%E8%A5%BF%E6%8C%96%E6%8E%98%E5%92%B8%E9%98%B3%E7%A7%A6%E6%9C%9D%E9%81%97%E5%9D%80.jpg"
  },
  {
    "wikidata_id": "Q2395125",
    "name": "Sheivand",
    "description": "archaeological site in Iran",
    "longitude": 50.191598,
    "latitude": 31.612403,
    "cover_image_url": null
  },
  {
    "wikidata_id": "Q2273816",
    "name": "鐵爾·顯薩拉",
    "description": "archaeological site in Iraq",
    "longitude": 44.93825,
    "latitude": 36.20071,
    "cover_image_url": null
  },
  {
    "wikidata_id": "Q2276969",
    "name": "上山遗址",
    "description": "archaeological site in Pujiang County (Zhejiang), People's Republic of China",
    "longitude": 119.97138,
    "latitude": 29.455823,
    "cover_image_url": "http://commons.wikimedia.org/wiki/Special:FilePath/Shangshan%20Relic%20Site%2C%20Stone%20tablet%202013.JPG"
  },
  {
    "wikidata_id": "Q2277068",
    "name": "山普拉古墓群",
    "description": "archaeological site in People's Republic of China",
    "longitude": 80.127786,
    "latitude": 37.002854,
    "cover_image_url": null
  },
  {
    "wikidata_id": "Q2278080",
    "name": "沈那遗址",
    "description": "archaeological site in People's Republic of China",
    "longitude": 101.753871,
    "latitude": 36.655195,
    "cover_image_url": null
  },
  {
    "wikidata_id": "Q2598524",
    "name": "许三湾城及墓群",
    "description": "archaeological site in Gansu, People's Republic of China",
    "longitude": 99.49322,
    "latitude": 39.34418,
    "cover_image_url": "http://commons.wikimedia.org/wiki/Special:FilePath/%E8%AE%B8%E4%B8%89%E6%B9%BE%E5%8F%A4%E5%9F%8E%2B%E7%BB%B5%E7%BE%8A%E6%9C%A8%E4%B9%83%E4%BC%8A.jpg"
  },
  {
    "wikidata_id": "Q2599315",
    "name": "焉不拉克古墓群",
    "description": "archaeological site in People's Republic of China",
    "longitude": 92.822162,
    "latitude": 43.032786,
    "cover_image_url": null
  },
  {
    "wikidata_id": "Q2599382",
    "name": "洋海墓群",
    "description": "archaeological site in Xinjiang",
    "longitude": 89.662438,
    "latitude": 42.819235,
    "cover_image_url": null
  },
  {
    "wikidata_id": "Q2601670",
    "name": "尉迟寺遗址",
    "description": "archaeological site in Mengcheng County, People's Republic of China",
    "longitude": 116.75289,
    "latitude": 33.35353,
    "cover_image_url": null
  },
  {
    "wikidata_id": "Q2812194",
    "name": "仙人洞遗址",
    "description": "cave and archaeological site in China",
    "longitude": 117.173222,
    "latitude": 28.736079,
    "cover_image_url": "http://commons.wikimedia.org/wiki/Special:FilePath/Wannian%20Xianrendong%20yizhi%208789.jpg"
  },
  {
    "wikidata_id": "Q2821653",
    "name": "阿比沃德",
    "description": "archaeological site in Turmenistan, ancient Sassanid city",
    "longitude": 59.566666666,
    "latitude": 37.391111111,
    "cover_image_url": null
  },
  {
    "wikidata_id": "Q2279585",
    "name": "南风古灶",
    "description": "archaeological site in Guangdong, People's Republic of China",
    "longitude": 113.07222222,
    "latitude": 23.00722222,
    "cover_image_url": "http://commons.wikimedia.org/wiki/Special:FilePath/Ancient%20Nanfeng%20Kiln.jpg"
  },
  {
    "wikidata_id": "Q2279598",
    "name": "石寨山古墓群",
    "description": "",
    "longitude": 102.6948,
    "latitude": 24.7181,
    "cover_image_url": "http://commons.wikimedia.org/wiki/Special:FilePath/%E7%9F%B3%E5%AF%A8%E5%B1%B1%E9%81%97%E5%9D%80%20-%20%E8%88%AA%E6%8B%8D%20-%202021-03-13%2001.jpg"
  },
  {
    "wikidata_id": "Q2279878",
    "name": "七个星佛寺遗址",
    "description": "Buddhist cave–temple site in the Xinjiang Uygur Autonomous Region of China",
    "longitude": 86.345688,
    "latitude": 41.931626,
    "cover_image_url": "http://commons.wikimedia.org/wiki/Special:FilePath/Gigexing%20buddhist%20temple%20ruins%202012%2010%2004%2003.jpg"
  },
  {
    "wikidata_id": "Q2280363",
    "name": "唐顺陵",
    "description": "mausoleum of Lady Yang, Wu Zetian's mother",
    "longitude": 108.79861111,
    "latitude": 34.46527778,
    "cover_image_url": null
  },
  {
    "wikidata_id": "Q2884629",
    "name": "Barm-e Delak",
    "description": "archaeological site in Fars Province, Iran",
    "longitude": 52.65384,
    "latitude": 29.5854,
    "cover_image_url": "http://commons.wikimedia.org/wiki/Special:FilePath/Barm-e%20Dilak%201.JPG"
  },
  {
    "wikidata_id": "Q2254519",
    "name": "黑水国遗址",
    "description": "archaeological site in Gansu, People's Republic of China",
    "longitude": 100.342495,
    "latitude": 39.015211,
    "cover_image_url": null
  },
  {
    "wikidata_id": "Q2431144",
    "name": "天龙山石窟",
    "description": "archeological site in China",
    "longitude": 112.378697,
    "latitude": 37.737231,
    "cover_image_url": "http://commons.wikimedia.org/wiki/Special:FilePath/Tianlongshan%20Grotto%20-%20Manshan%20Pavillion%2C%20Taiyuan%2C%20Shanxi.JPG"
  },
  {
    "wikidata_id": "Q2441675",
    "name": "通古斯巴西城址",
    "description": "archaeological site in Xinjiang, People's Republic of China",
    "longitude": 82.37136,
    "latitude": 41.25613,
    "cover_image_url": null
  },
  {
    "wikidata_id": "Q2443559",
    "name": "托普拉克堡",
    "description": "settlement",
    "longitude": 60.820833333,
    "latitude": 41.928611111,
    "cover_image_url": "http://commons.wikimedia.org/wiki/Special:FilePath/Toprak-Kala%2001.jpg"
  },
  {
    "wikidata_id": "Q2576851",
    "name": "Ganj Dareh",
    "description": "Iranian national heritage site",
    "longitude": 47.4758,
    "latitude": 34.2721,
    "cover_image_url": "http://commons.wikimedia.org/wiki/Special:FilePath/Ganj%20Dareh%20site.jpg"
  },
  {
    "wikidata_id": "Q2594685",
    "name": "五堡墓群",
    "description": "archaeological site in People's Republic of China",
    "longitude": 92.83471,
    "latitude": 42.88532,
    "cover_image_url": null
  },
  {
    "wikidata_id": "Q2598114",
    "name": "响堂山石窟",
    "description": "archaeological site in Handan, People's Republic of China",
    "longitude": 114.154908,
    "latitude": 36.533539,
    "cover_image_url": "http://commons.wikimedia.org/wiki/Special:FilePath/Xiangtangshan%20bodhisattva.jpg"
  },
  {
    "wikidata_id": "Q2598295",
    "name": "兴隆洼遗址",
    "description": "archaeological type site",
    "longitude": 120.785504,
    "latitude": 42.28561,
    "cover_image_url": null
  },
  {
    "wikidata_id": "Q2598382",
    "name": "西阴村遗址",
    "description": "archaeological site in Shanxi, People's Republic of China",
    "longitude": 111.2247,
    "latitude": 35.214,
    "cover_image_url": null
  },
  {
    "wikidata_id": "Q2598504",
    "name": "悬泉置遗址",
    "description": "archaeological site in Gansu, People's Republic of China",
    "longitude": 95.329734,
    "latitude": 40.264906,
    "cover_image_url": "http://commons.wikimedia.org/wiki/Special:FilePath/%E6%82%AC%E6%B3%89%E7%BD%AE%E4%BD%8D%E7%BD%AE%E7%AE%80%E5%9B%BE.png"
  },
  {
    "wikidata_id": "Q2495429",
    "name": "阿卡希凱夫",
    "description": "Tentative World Heritage Site in Uzbekistan",
    "longitude": 71.4506,
    "latitude": 40.8866,
    "cover_image_url": "http://commons.wikimedia.org/wiki/Special:FilePath/Achsikent.jpg"
  },
  {
    "wikidata_id": "Q2658740",
    "name": "古格王国遗址",
    "description": "capital of the ancient kingdom Guge in Zanda County, Ngari, Tibet, China",
    "longitude": 79.670603,
    "latitude": 31.466151,
    "cover_image_url": "http://commons.wikimedia.org/wiki/Special:FilePath/Guge%20Ruins%202.jpg"
  },
  {
    "wikidata_id": "Q2996387",
    "name": "薩萊楚克",
    "description": "Medieval city of the Golden Horde",
    "longitude": 51.73333333,
    "latitude": 47.5,
    "cover_image_url": "http://commons.wikimedia.org/wiki/Special:FilePath/Sarayshyk%202020.jpg"
  },
  {
    "wikidata_id": "Q2845669",
    "name": "Anau",
    "description": "archaeological site at Änew, Turkmenistan",
    "longitude": 58.528734,
    "latitude": 37.89765,
    "cover_image_url": null
  },
  {
    "wikidata_id": "Q2527986",
    "name": "Ali Kosh",
    "description": "Iranian national heritage site",
    "longitude": 47.324922,
    "latitude": 32.557814,
    "cover_image_url": "http://commons.wikimedia.org/wiki/Special:FilePath/Ganj%20dareh.jpg"
  },
  {
    "wikidata_id": "Q2538742",
    "name": "瓦店遗址",
    "description": "archaeological site in Yuzhou, People's Republic of China",
    "longitude": 113.403286,
    "latitude": 34.190633,
    "cover_image_url": null
  },
  {
    "wikidata_id": "Q2548196",
    "name": "万佛堂石窟",
    "description": "archaeological site in Yi County, People's Republic of China",
    "longitude": 121.159115,
    "latitude": 41.576031,
    "cover_image_url": "http://commons.wikimedia.org/wiki/Special:FilePath/Wanfo%20Hall%20Grottoes%2014%202015-09.JPG"
  },
  {
    "wikidata_id": "Q2548353",
    "name": "王家峰墓群",
    "description": "cemetery in Taiyuan, China",
    "longitude": 112.6082,
    "latitude": 37.8377,
    "cover_image_url": null
  },
  {
    "wikidata_id": "Q2548519",
    "name": "万寿岩遗址",
    "description": "archaeological site in Sanming, People's Republic of China",
    "longitude": 117.448086,
    "latitude": 26.270112,
    "cover_image_url": null
  },
  {
    "wikidata_id": "Q2692927",
    "name": "二里頭遺址",
    "description": "疑似夏朝都城遺址",
    "longitude": 112.69,
    "latitude": 34.6925,
    "cover_image_url": "http://commons.wikimedia.org/wiki/Special:FilePath/20240815%20Erlitou%20Site%2005.jpg"
  },
  {
    "wikidata_id": "Q3012594",
    "name": "大麥地文化",
    "description": "rock engravings site in Ningxia province (China)",
    "longitude": 105.1968,
    "latitude": 37.5002,
    "cover_image_url": null
  },
  {
    "wikidata_id": "Q3041097",
    "name": "Dukkan-e Daud",
    "description": "archaeological site in Iran",
    "longitude": 45.897875,
    "latitude": 34.440894,
    "cover_image_url": null
  },
  {
    "wikidata_id": "Q2559322",
    "name": "Altyndepe",
    "description": "archaeological site in Turkmenistan",
    "longitude": 60.432375,
    "latitude": 36.85791667,
    "cover_image_url": "http://commons.wikimedia.org/wiki/Special:FilePath/Altyndepe%2C%20Turkmenistan.jpg"
  },
  {
    "wikidata_id": "Q2559667",
    "name": "文殊山石窟",
    "description": "archaeological site in People's Republic of China",
    "longitude": 98.34099,
    "latitude": 39.6469,
    "cover_image_url": null
  },
  {
    "wikidata_id": "Q3412395",
    "name": "Qadamgah",
    "description": "rock-cut monument in Fars, Iran",
    "longitude": 53.2122,
    "latitude": 29.7341,
    "cover_image_url": "http://commons.wikimedia.org/wiki/Special:FilePath/Qadamgah%20Water%20monument.jpg"
  },
  {
    "wikidata_id": "Q3412413",
    "name": "卡列 博茲",
    "description": "cave and archaeological site in Iran",
    "longitude": 51.561389,
    "latitude": 32.388889,
    "cover_image_url": null
  },
  {
    "wikidata_id": "Q3445289",
    "name": "Cheshmeh-Ali",
    "description": "spring in Ray, Iranian national heritage site",
    "longitude": 51.44972222,
    "latitude": 35.61027778,
    "cover_image_url": "http://commons.wikimedia.org/wiki/Special:FilePath/Cheshmeh-Ali%2C%20Ray.JPG"
  },
  {
    "wikidata_id": "Q3469362",
    "name": "Eshaqvand Tombs",
    "description": "tombs in Kermanshah Province, Iranian national heritage site",
    "longitude": 47.4484,
    "latitude": 34.2484,
    "cover_image_url": "http://commons.wikimedia.org/wiki/Special:FilePath/Eshaqvand%20Rock%20tomb.jpg"
  },
  {
    "wikidata_id": "Q3326967",
    "name": "Mowri",
    "description": "archaeological site in Iran",
    "longitude": 49.827,
    "latitude": 32.361,
    "cover_image_url": null
  },
  {
    "wikidata_id": "Q3110595",
    "name": "Gonur Depe",
    "description": "archaeological site in Turkmenistan",
    "longitude": 62.0375,
    "latitude": 38.213333333,
    "cover_image_url": "http://commons.wikimedia.org/wiki/Special:FilePath/Gonur%20ruins.jpg"
  },
  {
    "wikidata_id": "Q3482085",
    "name": "Shikaft-e Gulgul",
    "description": "Iranian national heritage site",
    "longitude": 47.46111111,
    "latitude": 33.49111111,
    "cover_image_url": "http://commons.wikimedia.org/wiki/Special:FilePath/Shikaft-i%20Gulgul%20Iran.jpg"
  },
  {
    "wikidata_id": "Q3515037",
    "name": "Tang-i Var Inscription",
    "description": "archaeological site in Iran",
    "longitude": 46.6289,
    "latitude": 35.0045,
    "cover_image_url": null
  },
  {
    "wikidata_id": "Q3699231",
    "name": "Karaftu",
    "description": "Iranian national heritage site",
    "longitude": 46.85,
    "latitude": 36.266666666,
    "cover_image_url": "http://commons.wikimedia.org/wiki/Special:FilePath/Karaftoo.jpg"
  },
  {
    "wikidata_id": "Q3818368",
    "name": "鎬京",
    "description": "西周都城",
    "longitude": 108.75,
    "latitude": 34.233333333,
    "cover_image_url": "http://commons.wikimedia.org/wiki/Special:FilePath/Zongzhou%20bell.jpg"
  },
  {
    "wikidata_id": "Q3826507",
    "name": "昔格納克",
    "description": "中亞古城市",
    "longitude": 66.963888888,
    "latitude": 44.156666666,
    "cover_image_url": "http://commons.wikimedia.org/wiki/Special:FilePath/Sighnaq.jpg"
  },
  {
    "wikidata_id": "Q4057547",
    "name": "阿迪纳·帖佩",
    "description": "UNESCO World Heritage Site",
    "longitude": 68.85436111,
    "latitude": 37.79802778,
    "cover_image_url": "http://commons.wikimedia.org/wiki/Special:FilePath/Ajina-Tepa.jpg"
  },
  {
    "wikidata_id": "Q4060347",
    "name": "阿克亚塔斯遗址",
    "description": "archaeological site in Jambyl Region, Kazakhstan",
    "longitude": 71.8027,
    "latitude": 42.9533,
    "cover_image_url": "http://commons.wikimedia.org/wiki/Special:FilePath/Akyrtas.JPG"
  },
  {
    "wikidata_id": "Q4103586",
    "name": "Varahsha",
    "description": "archaeological site in Uzbekistan",
    "longitude": 64.073183,
    "latitude": 39.862927,
    "cover_image_url": "http://commons.wikimedia.org/wiki/Special:FilePath/Varaxsha%209.jpg"
  },
  {
    "wikidata_id": "Q4537933",
    "name": "賈肯特",
    "description": "archaeological site in Kazakhstan",
    "longitude": 61.92166667,
    "latitude": 45.61194444,
    "cover_image_url": "http://commons.wikimedia.org/wiki/Special:FilePath/KorkytAta%20Memorial%20Karmakshi%2007.jpg"
  },
  {
    "wikidata_id": "Q4409147",
    "name": "Sawran",
    "description": "ancient city located in the vicinity of Turkestan, Kazakhstan",
    "longitude": 67.76861111,
    "latitude": 43.51527778,
    "cover_image_url": "http://commons.wikimedia.org/wiki/Special:FilePath/Sauran%201.jpg"
  },
  {
    "wikidata_id": "Q4724513",
    "name": "阿里·萨德尔岩洞",
    "description": "cave in Iran",
    "longitude": 48.303881,
    "latitude": 35.301608,
    "cover_image_url": "http://commons.wikimedia.org/wiki/Special:FilePath/Alisadr-cave-90.JPG"
  },
  {
    "wikidata_id": "Q4854590",
    "name": "Bandian Complex",
    "description": "archaeological site in Dargaz County, Iranian national heritage site",
    "longitude": 59.1015,
    "latitude": 37.462777777,
    "cover_image_url": "http://commons.wikimedia.org/wiki/Special:FilePath/Bandian%20Hallway.jpg"
  },
  {
    "wikidata_id": "Q4289304",
    "name": "Mele Hairam",
    "description": "archaeological site in Turkmenistan",
    "longitude": 61.324191337,
    "latitude": 36.57115298,
    "cover_image_url": null
  },
  {
    "wikidata_id": "Q4212491",
    "name": "坎卡",
    "description": "site of an ancient settlement in Uzbekistan",
    "longitude": 68.98262222,
    "latitude": 40.80230278,
    "cover_image_url": "http://commons.wikimedia.org/wiki/Special:FilePath/Kanka1.jpg"
  },
  {
    "wikidata_id": "Q4421165",
    "name": "西团山遗址",
    "description": "Bronze Age archaeological site in Jilin, PRC",
    "longitude": 126.497415,
    "latitude": 43.803352,
    "cover_image_url": null
  },
  {
    "wikidata_id": "Q4752903",
    "name": "帕普古城",
    "description": "Archaeological site in Uzbekistan",
    "longitude": 71.033333333,
    "latitude": 40.833333333,
    "cover_image_url": null
  },
  {
    "wikidata_id": "Q4778099",
    "name": "Anxi",
    "description": "archaeological site in Gansu county, China",
    "longitude": 95.95,
    "latitude": 40.53055556,
    "cover_image_url": null
  },
  {
    "wikidata_id": "Q4516174",
    "name": "Shirik-Rabat",
    "description": "archaeological site in Kazakhstan",
    "longitude": 62.91333,
    "latitude": 44.0875,
    "cover_image_url": "http://commons.wikimedia.org/wiki/Special:FilePath/Chirik%20Tolstov.JPG"
  },
  {
    "wikidata_id": "Q5063955",
    "name": "霍賈·馬什哈德陵墓",
    "description": "Pre-Mongol madrasah in Khatlon, Tajikistan",
    "longitude": 68.14808889,
    "latitude": 37.22017778,
    "cover_image_url": "http://commons.wikimedia.org/wiki/Special:FilePath/KhojaMahshad%2CS.jpg"
  },
  {
    "wikidata_id": "Q4521125",
    "name": "Shakh Fazil",
    "description": "archaeological site in Kirgisistan",
    "longitude": 71.659094444,
    "latitude": 41.428747222,
    "cover_image_url": null
  },
  {
    "wikidata_id": "Q4521573",
    "name": "Shashtepa",
    "description": "",
    "longitude": 69.18888889,
    "latitude": 41.23194444,
    "cover_image_url": null
  },
  {
    "wikidata_id": "Q5095133",
    "name": "Chia Jani",
    "description": "archaeological site in Iran",
    "longitude": 46.78346,
    "latitude": 33.94795,
    "cover_image_url": "http://commons.wikimedia.org/wiki/Special:FilePath/Tagh1.jpg"
  },
  {
    "wikidata_id": "Q5103835",
    "name": "卓哈·博納特",
    "description": "Iranian national heritage site",
    "longitude": 48.505,
    "latitude": 32.222222,
    "cover_image_url": null
  },
  {
    "wikidata_id": "Q5244467",
    "name": "Tureng Tepe",
    "description": "archaeological site",
    "longitude": 54.590278,
    "latitude": 36.934722,
    "cover_image_url": "http://commons.wikimedia.org/wiki/Special:FilePath/Tureng%20Tepe%20%284475081915%29.jpg"
  },
  {
    "wikidata_id": "Q5285877",
    "name": "Do-Ashkaft Cave",
    "description": "cave in Iran",
    "longitude": 47.130813888,
    "latitude": 34.400952777,
    "cover_image_url": "http://commons.wikimedia.org/wiki/Special:FilePath/Do%20Ashkaft%20cave.jpg"
  },
  {
    "wikidata_id": "Q5291335",
    "name": "Domoko",
    "description": "archeologic site in China",
    "longitude": 79.932694444,
    "latitude": 37.101194444,
    "cover_image_url": null
  },
  {
    "wikidata_id": "Q5433839",
    "name": "放马滩墓群",
    "description": "archeological site located near Tianshui in China's Gansu province",
    "longitude": 106.100042,
    "latitude": 34.412902,
    "cover_image_url": "http://commons.wikimedia.org/wiki/Special:FilePath/Fangmatan%20paper%20map.jpg"
  },
  {
    "wikidata_id": "Q5451665",
    "name": "Marbin Fortress",
    "description": "fortress in Isfahan, Iranian national heritage site",
    "longitude": 51.570277777,
    "latitude": 32.648055555,
    "cover_image_url": "http://commons.wikimedia.org/wiki/Special:FilePath/Atashgah%20Isfahan%20Zoroastrian%20fire%20temple.jpg"
  },
  {
    "wikidata_id": "Q5364678",
    "name": "燕下都",
    "description": "archaeological site in China, capital of the state of Yan during the middle and later parts of the Warring States period",
    "longitude": 115.563277,
    "latitude": 39.306166,
    "cover_image_url": "http://commons.wikimedia.org/wiki/Special:FilePath/Warring%20states%20roof%20tile%20end%202.jpg"
  },
  {
    "wikidata_id": "Q5371879",
    "name": "丸都城",
    "description": "UNESCO World Heritage Site in Jilin, China",
    "longitude": 126.157111,
    "latitude": 41.146527,
    "cover_image_url": "http://commons.wikimedia.org/wiki/Special:FilePath/Entrance%20to%20Hwando%20Mountain%20Fortress.jpg"
  },
  {
    "wikidata_id": "Q5674852",
    "name": "Tepe Sagzabad",
    "description": "archaeological site in Iran",
    "longitude": 49.952264,
    "latitude": 35.816671,
    "cover_image_url": "http://commons.wikimedia.org/wiki/Special:FilePath/%D8%AA%D9%BE%D9%87%20%D8%A8%D8%A7%D8%B3%D8%AA%D8%A7%D9%86%DB%8C%20%D8%B3%DA%AF%D8%B2%D8%A2%D8%A8%D8%A7%D8%AF.jpg"
  },
  {
    "wikidata_id": "Q5680019",
    "name": "Iwan-e Mosaic",
    "description": "UNESCO world heritage site in Iran",
    "longitude": 51.5764556,
    "latitude": 29.7800445,
    "cover_image_url": "http://commons.wikimedia.org/wiki/Special:FilePath/IranBishapur7.jpg"
  },
  {
    "wikidata_id": "Q5680581",
    "name": "Tepe Aveh",
    "description": "mound in Aveh, Iranian national heritage site",
    "longitude": 50.429361111,
    "latitude": 34.800166666,
    "cover_image_url": "http://commons.wikimedia.org/wiki/Special:FilePath/%D8%AA%D9%BE%D9%87%20%D8%A8%D8%A7%D8%B3%D8%AA%D8%A7%D9%86%DB%8C%20%D8%A2%D9%88%D9%87.JPG"
  },
  {
    "wikidata_id": "Q5825525",
    "name": "Anobanini rock relief",
    "description": "rock relief from the Isin-Larsa period",
    "longitude": 45.868349,
    "latitude": 34.463259,
    "cover_image_url": "http://commons.wikimedia.org/wiki/Special:FilePath/Anubanini%20Rock%20Relief%201.jpg"
  },
  {
    "wikidata_id": "Q5853531",
    "name": "Zahedan Kohneh",
    "description": "",
    "longitude": 61.685802016,
    "latitude": 30.975706884,
    "cover_image_url": "http://commons.wikimedia.org/wiki/Special:FilePath/Zahedan%20Kohneh%2013960301%2022.jpg"
  },
  {
    "wikidata_id": "Q5895105",
    "name": "Q5895105",
    "description": "",
    "longitude": 49.588888888,
    "latitude": 31.241388888,
    "cover_image_url": null
  },
  {
    "wikidata_id": "Q5897291",
    "name": "Tepe Balkin",
    "description": "mound in Malard County, Iranian national heritage site",
    "longitude": 50.957222222,
    "latitude": 35.619444444,
    "cover_image_url": "http://commons.wikimedia.org/wiki/Special:FilePath/Balkin%20Tepe%2C%20Malard%2C%20Shahriyar%2C%20Tehran%2005.JPG"
  },
  {
    "wikidata_id": "Q5898860",
    "name": "Tepe Abdul Hosein",
    "description": "Iranian national heritage site",
    "longitude": 48.12995,
    "latitude": 34.055244444,
    "cover_image_url": null
  },
  {
    "wikidata_id": "Q5899743",
    "name": "Tepe Qaleh Langar",
    "description": "mound in Kerman County, Iranian national heritage site",
    "longitude": 57.258416666,
    "latitude": 30.084611111,
    "cover_image_url": null
  },
  {
    "wikidata_id": "Q5902280",
    "name": "Tepe Juqin",
    "description": "mound in Vahidieh, Iranian national heritage site",
    "longitude": 51.019722222,
    "latitude": 35.601666666,
    "cover_image_url": "http://commons.wikimedia.org/wiki/Special:FilePath/Iran%20-%20Shahriar%20-%20Juqeyn%20Hill%20-%20panoramio.jpg"
  },
  {
    "wikidata_id": "Q5903383",
    "name": "Tepe Asiabad (Saveh)",
    "description": "mound in Saveh, Iranian national heritage site",
    "longitude": 50.376944444,
    "latitude": 35.007777777,
    "cover_image_url": "http://commons.wikimedia.org/wiki/Special:FilePath/%D8%AA%D9%BE%D9%87%20%D8%A8%D8%A7%D8%B3%D8%AA%D8%A7%D9%86%DB%8C%20%D8%B3%DB%8C%D8%AF%D8%A2%D8%A8%D8%A7%D8%AF%202.jpg"
  },
  {
    "wikidata_id": "Q5903774",
    "name": "Tepe Dozd (Razavi Khorasan)",
    "description": "mound in Kashmar County, Iranian national heritage site",
    "longitude": 58.388888888,
    "latitude": 35.270277777,
    "cover_image_url": "http://commons.wikimedia.org/wiki/Special:FilePath/Dozd%20Castle2021.jpg"
  },
  {
    "wikidata_id": "Q5904357",
    "name": "Gerdkooh ancient hill",
    "description": "Iranian national heritage site",
    "longitude": 52.882016666,
    "latitude": 36.460288888,
    "cover_image_url": "http://commons.wikimedia.org/wiki/Special:FilePath/%D8%AA%D9%BE%D9%87%20%DA%AF%D8%B1%D8%AF%DA%A9%D9%88%D9%87%20%D8%AC%D9%85%D9%86%D8%A7%D9%86.JPG"
  },
  {
    "wikidata_id": "Q5911797",
    "name": "Tepe Delavar (Samalqan County)",
    "description": "mound in Samalqan County, Iranian national heritage site",
    "longitude": 56.9055,
    "latitude": 37.574777777,
    "cover_image_url": "http://commons.wikimedia.org/wiki/Special:FilePath/Tapeh%20Delavar.jpg"
  },
  {
    "wikidata_id": "Q5913227",
    "name": "Tepe Dehmolla",
    "description": "mound in Shahrud County, Iranian national heritage site",
    "longitude": 54.755555555,
    "latitude": 36.270138888,
    "cover_image_url": "http://commons.wikimedia.org/wiki/Special:FilePath/Tappe-ye%20Dehmolla.jpg"
  },
  {
    "wikidata_id": "Q5963338",
    "name": "Gor",
    "description": "Sassanian city near modern Firuzabad, Fars",
    "longitude": 52.5326242,
    "latitude": 28.8527394,
    "cover_image_url": "http://commons.wikimedia.org/wiki/Special:FilePath/%D8%AA%D8%B5%D9%88%DB%8C%D8%B1%D9%87%D9%88%D8%A7%DB%8C%DB%8C%20%D9%85%D9%86%D8%A7%D8%B1%D9%87%20%D9%88%20%D8%B4%D9%87%D8%B1%20%D8%AF%D8%A7%DB%8C%D8%B1%D9%87%20%D8%A7%DB%8C%20%DA%AF%D9%88%D8%B1.jpg"
  },
  {
    "wikidata_id": "Q5914921",
    "name": "Tepe Khurian-1",
    "description": "mound in Shahrud County, Iranian national heritage site",
    "longitude": 54.875277777,
    "latitude": 36.304722222,
    "cover_image_url": null
  },
  {
    "wikidata_id": "Q5916068",
    "name": "Tepe Sarab",
    "description": "Iranian national heritage site",
    "longitude": 47.133308333,
    "latitude": 34.339225,
    "cover_image_url": null
  },
  {
    "wikidata_id": "Q5916745",
    "name": "Tikab Shelter Caves",
    "description": "Prehistoric caves and archaeological site in Kazerun, Iran",
    "longitude": 51.677333333,
    "latitude": 29.635722222,
    "cover_image_url": "http://commons.wikimedia.org/wiki/Special:FilePath/Tikab%20Cave%20of%20Kazerun%202.jpg"
  },
  {
    "wikidata_id": "Q5917259",
    "name": "Tepe Shamsabad (Damghan County)",
    "description": "mound in Damghan County, Iranian national heritage site",
    "longitude": 54.399444444,
    "latitude": 36.129722222,
    "cover_image_url": null
  },
  {
    "wikidata_id": "Q5919514",
    "name": "Tepe Qiasabad",
    "description": "mound in Chenaran County, Iranian national heritage site",
    "longitude": 59.041388888,
    "latitude": 36.772777777,
    "cover_image_url": "http://commons.wikimedia.org/wiki/Special:FilePath/%D9%82%DB%8C%D8%A7%D8%B3%E2%80%8C%D8%A2%D8%A8%D8%A7%D8%AF.jpg"
  },
  {
    "wikidata_id": "Q5923286",
    "name": "Jubaji tomb",
    "description": "Iranian national heritage site",
    "longitude": 49.667222,
    "latitude": 31.241944,
    "cover_image_url": "http://commons.wikimedia.org/wiki/Special:FilePath/Goldschmuck%20aus%20Iran%2C%20Dschubadschi%2C%20Grab%20der%20elamischen%20Prinzessinnen%2C%20um%20575%20v.C.%20%283%29.jpg"
  },
  {
    "wikidata_id": "Q5923724",
    "name": "Tepe Eskandari",
    "description": "mound in Hafshejan, Iranian national heritage site",
    "longitude": 50.778055555,
    "latitude": 32.218055555,
    "cover_image_url": "http://commons.wikimedia.org/wiki/Special:FilePath/%D8%AA%D9%BE%D9%87%20%D8%A7%D8%B3%DA%A9%D9%86%D8%AF%D8%B1%DB%8C%20%D9%87%D9%81%D8%B4%D8%AC%D8%A7%D9%86.JPG"
  },
  {
    "wikidata_id": "Q5708055",
    "name": "Teppe Zagheh",
    "description": "archaeological site",
    "longitude": 49.975013,
    "latitude": 35.823285,
    "cover_image_url": "http://commons.wikimedia.org/wiki/Special:FilePath/Tepe%20Zagheh%20mortar%207000%20BC.jpg"
  },
  {
    "wikidata_id": "Q5866947",
    "name": "Temple of Anahita at Bishapur",
    "description": "temple",
    "longitude": 51.5756862,
    "latitude": 29.7800335,
    "cover_image_url": "http://commons.wikimedia.org/wiki/Special:FilePath/Anahita%20Temple%20of%20Bishapur%20%28Kazerun%29%201.jpg"
  },
  {
    "wikidata_id": "Q5868603",
    "name": "Tepe Naderi (Bisotun)",
    "description": "mound in Bisotun, Iranian national heritage site",
    "longitude": 47.452777777,
    "latitude": 34.408055555,
    "cover_image_url": null
  },
  {
    "wikidata_id": "Q5871153",
    "name": "Tepe Bampur",
    "description": "mound in Bampur, Iranian national heritage site",
    "longitude": 60.4475,
    "latitude": 27.201944444,
    "cover_image_url": "http://commons.wikimedia.org/wiki/Special:FilePath/%D9%82%D9%84%D8%B9%D9%87%20%D8%A8%D9%85%D9%BE%D9%88%D8%B1%20.%20%D9%86%D9%85%D8%A7%DB%8C%20%D8%B4%D8%B1%D9%82%DB%8C.jpg"
  },
  {
    "wikidata_id": "Q5871642",
    "name": "Tepe Dowlatabad 1",
    "description": "mound in Farahan County, Iranian national heritage site",
    "longitude": 49.642805555,
    "latitude": 34.396972222,
    "cover_image_url": null
  },
  {
    "wikidata_id": "Q5872552",
    "name": "Tepe Mafinabad",
    "description": "mound in Eslamshahr, Iranian national heritage site",
    "longitude": 51.222916666,
    "latitude": 35.522222222,
    "cover_image_url": "http://commons.wikimedia.org/wiki/Special:FilePath/Pic%20hamid%2002.jpg"
  },
  {
    "wikidata_id": "Q5876080",
    "name": "Bābā Jān Tepe",
    "description": "Iranian national heritage site",
    "longitude": 47.9358,
    "latitude": 34.0236,
    "cover_image_url": "http://commons.wikimedia.org/wiki/Special:FilePath/Anthropomorphes%20Gef%C3%A4%C3%9F%20aus%20Iran%2C%20Tappe%20Baba%20Schan%2C%20Keramik%2C%208.%20Jh.%20v.C.%20%281%29.jpg"
  },
  {
    "wikidata_id": "Q5878915",
    "name": "Tepe Hesar-e Hasan Beyk",
    "description": "mound in Varamin County, Iranian national heritage site",
    "longitude": 51.720194444,
    "latitude": 35.201444444,
    "cover_image_url": "http://commons.wikimedia.org/wiki/Special:FilePath/%D8%AA%D9%BE%D9%87%20%D8%AD%D8%B5%D8%A7%D8%B1%D8%AD%D8%B3%D9%86%20%D8%A8%DB%8C%DA%AF.jpg"
  },
  {
    "wikidata_id": "Q5888557",
    "name": "Tepe Paj",
    "description": "Iranian national heritage site",
    "longitude": 59.672027777,
    "latitude": 36.477694444,
    "cover_image_url": "http://commons.wikimedia.org/wiki/Special:FilePath/%D9%85%D8%AD%D9%88%D8%B7%D9%87%20%D9%BE%D8%A7%DA%98.jpg"
  },
  {
    "wikidata_id": "Q5889750",
    "name": "Do Dehak Site",
    "description": "archaeological site in Delijan County, Iranian national heritage site",
    "longitude": 50.561111111,
    "latitude": 34.141388888,
    "cover_image_url": null
  },
  {
    "wikidata_id": "Q5891011",
    "name": "Tepe Khurian-3",
    "description": "mound in Shahrud County, Iranian national heritage site",
    "longitude": 54.879444444,
    "latitude": 36.323333333,
    "cover_image_url": null
  },
  {
    "wikidata_id": "Q5892249",
    "name": "Tepe Vavan",
    "description": "mound in Eslamshahr, Iranian national heritage site",
    "longitude": 51.216944444,
    "latitude": 35.509166666,
    "cover_image_url": "http://commons.wikimedia.org/wiki/Special:FilePath/Vavan%20hill%2CTehran%2C%20Iran.jpg"
  },
  {
    "wikidata_id": "Q5949857",
    "name": "Dahan-e Gholaman",
    "description": "archeological site in eastern Iran",
    "longitude": 61.6363,
    "latitude": 30.7906,
    "cover_image_url": "http://commons.wikimedia.org/wiki/Special:FilePath/%D9%86%D9%85%D8%A7%DB%8C%DB%8C%20%D8%A7%D8%B2%20%D8%AF%D9%87%D8%A7%D9%86%D9%87%20%D8%BA%D9%84%D8%A7%D9%85%D8%A7%D9%86.jpg"
  },
  {
    "wikidata_id": "Q5951240",
    "name": "Firuzabad Site (Bardaskan County)",
    "description": "archaeological site in Bardaskan County, Iranian national heritage site",
    "longitude": 57.948611111,
    "latitude": 35.124444444,
    "cover_image_url": "http://commons.wikimedia.org/wiki/Special:FilePath/Firuzabad%20area2021.jpg"
  },
  {
    "wikidata_id": "Q5959624",
    "name": "Chogha Gavaneh",
    "description": "Iranian national heritage site",
    "longitude": 47.091111111,
    "latitude": 34.336944444,
    "cover_image_url": null
  },
  {
    "wikidata_id": "Q5924398",
    "name": "Tepe Khurian-2",
    "description": "mound in Shahrud County, Iranian national heritage site",
    "longitude": 54.885833333,
    "latitude": 36.315833333,
    "cover_image_url": null
  },
  {
    "wikidata_id": "Q5924474",
    "name": "Abdolabad Site (Bardaskan County)",
    "description": "archaeological site in Bardaskan County, Iranian national heritage site",
    "longitude": 57.977222222,
    "latitude": 35.095833333,
    "cover_image_url": "http://commons.wikimedia.org/wiki/Special:FilePath/Abdolabad%20Mosque2021%2023.jpg"
  },
  {
    "wikidata_id": "Q5925033",
    "name": "Tepe Imamzadeh Abdullah (Saveh County)",
    "description": "mound in Saveh County, Iranian national heritage site",
    "longitude": 50.391027777,
    "latitude": 34.854527777,
    "cover_image_url": null
  },
  {
    "wikidata_id": "Q5925817",
    "name": "Q5925817",
    "description": "Iranian national heritage site",
    "longitude": 47.13595,
    "latitude": 34.321944444,
    "cover_image_url": null
  },
  {
    "wikidata_id": "Q5927679",
    "name": "Tepe Chaleh Khandaq-e Shahjuq",
    "description": "mound in Semnan, Iranian national heritage site",
    "longitude": 53.378888888,
    "latitude": 35.558611111,
    "cover_image_url": "http://commons.wikimedia.org/wiki/Special:FilePath/%D8%AA%D9%BE%D9%87%20%DA%86%D8%A7%D9%84%20%D8%AE%D9%86%D8%AF%D9%82%20%D8%B3%D9%85%D9%86%D8%A7%D9%86.jpg"
  },
  {
    "wikidata_id": "Q5932369",
    "name": "Imamzadeh Sakineh Khatun Mounds",
    "description": "mounds in Qom County, Iranian national heritage site",
    "longitude": 51.128222222,
    "latitude": 34.490555555,
    "cover_image_url": "http://commons.wikimedia.org/wiki/Special:FilePath/Desert%20%2815%29.jpg"
  },
  {
    "wikidata_id": "Q5933363",
    "name": "Alvir Tepe",
    "description": "mound in Zarandieh County, Iranian national heritage site",
    "longitude": 50.021472222,
    "latitude": 35.402861111,
    "cover_image_url": null
  },
  {
    "wikidata_id": "Q5933607",
    "name": "Geoy Tepe",
    "description": "Iranian national heritage site",
    "longitude": 45.145278,
    "latitude": 37.518056,
    "cover_image_url": null
  },
  {
    "wikidata_id": "Q6402362",
    "name": "Khalid Nabi Cemetery",
    "description": "cemetery between Kalaleh and Gonbad-e Kavus County, Iran",
    "longitude": 55.42,
    "latitude": 37.7425,
    "cover_image_url": "http://commons.wikimedia.org/wiki/Special:FilePath/Irnf139-Na%20Cmentzrzu%20Fallicznym.jpg"
  },